,id,name,link,reviews,rating,price_range_usd,is_sponsored,menu_link,reservation_link,featured_image,latitude,longitude,has_delivery,is_premium,cuisines
0,26794670,Phở Việt Nam - Phạm Hồng Thái,https://www.tripadvisor.com/Restaurant_Review-g293925-d26794670-Reviews-Ph_Vi_t_Nam_Ph_m_H_ng_Thai-Ho_Chi_Minh_City.html,200,4.8,$,True,http://phovietnam.vn/,,https://dynamic-media-cdn.tripadvisor.com/media/photo-o/2a/af/3e/68/ph-d-c-bi-t.jpg,10.771386,106.69614,False,True,"['Vietnamese', 'Soups', 'Indigenous']"
1,26681281,Baieta Saigon,https://www.tripadvisor.com/Restaurant_Review-g293925-d26681281-Reviews-Baieta_Saigon-Ho_Chi_Minh_City.html,3,4.3,$$ - $$$,True,,,https://dynamic-media-cdn.tripadvisor.com/media/photo-o/2f/d7/3a/48/sunset-view.jpg,10.802878,106.72722,False,True,"['French', 'Pizza', 'Mediterranean']"
2,10721705,Bếp Mẹ ỉn,https://www.tripadvisor.com/Restaurant_Review-g293925-d10721705-Reviews-B_p_M_n-Ho_Chi_Minh_City.html,2031,4.6,$,False,,,https://dynamic-media-cdn.tripadvisor.com/media/photo-o/29/db/99/dc/come-in-and-join-us-or.jpg,10.773849,106.69806,False,False,"['Asian', 'Vietnamese', 'Healthy', 'Street Food']"
3,17704147,Secret Garden Vietnamese Restaurant,https://www.tripadvisor.com/Restaurant_Review-g293925-d17704147-Reviews-Secret_Garden_Vietnamese_Restaurant-Ho_Chi_Minh_City.html,499,4.8,$$ - $$$,False,,,https://dynamic-media-cdn.tripadvisor.com/media/photo-o/2e/63/84/89/warmly-welcome-you-to.jpg,10.768849,106.69839,False,False,"['Asian', 'Fusion', 'Vietnamese', 'Healthy']"
4,15046046,Cloud Nine Sai Gon Restaurant,https://www.tripadvisor.com/Restaurant_Review-g293925-d15046046-Reviews-Cloud_Nine_Sai_Gon_Restaurant-Ho_Chi_Minh_City.html,676,5.0,$$$$,False,https://saigon.cloudninerestaurants.com/,,https://dynamic-media-cdn.tripadvisor.com/media/photo-o/2e/21/76/d2/dining.jpg,10.773206,106.69567,False,False,"['Bar', 'Fast Food', 'European', 'Vietnamese', 'Healthy', 'Wine Bar']"
5,8537757,Latest Recipe,https://www.tripadvisor.com/Restaurant_Review-g293925-d8537757-Reviews-Latest_Recipe-Ho_Chi_Minh_City.html,1071,4.9,$$$$,False,,https://tripadvisor.com/Commerce?p=Restaurants_SevenRooms&src=255386458&geo=8537757&from=Restaurants&area=reservation_button&slot=1&matchID=1&oos=0&cnt=1&silo=29025&bucket=870813&nrank=1&crank=1&clt=R&ttype=Restaurant&tm=328629120&managed=false&capped=false&gosox=E4dS6BmBGdrr2qeEMfyM4Ykh7g7kZZMQtwvX1r7-bZn0SG8wi-cOieoDR1eMjOtRNGi9I6nuBPmXmunT2F7Y2Z3lwrv6J6w_XgNUw5KVNxg&cs=10aaa4968a4b05680def836a5b977fa95_re1,https://dynamic-media-cdn.tripadvisor.com/media/photo-o/2f/63/8c/15/caption.jpg,10.779992,106.707344,False,False,"['Seafood', 'International', 'Asian', 'Vietnamese']"
6,7057524,The Lounge - Sheraton Saigon Grand Opera Hotel,https://www.tripadvisor.com/Restaurant_Review-g293925-d7057524-Reviews-The_Lounge_Sheraton_Saigon_Grand_Opera_Hotel-Ho_Chi_Minh_City.html,1128,5.0,$$$$,False,,,https://dynamic-media-cdn.tripadvisor.com/media/photo-o/0d/9e/37/3d/the-lobby-lounge-at-sheraton.jpg,10.77577,106.70423,False,True,"['American', 'Bar', 'Cafe', 'Fast Food', 'European', 'Asian', 'Pub', 'Vietnamese']"
7,18927790,The Monkey Gallery Dining,https://www.tripadvisor.com/Restaurant_Review-g293925-d18927790-Reviews-The_Monkey_Gallery_Dining-Ho_Chi_Minh_City.html,156,4.6,$$$$,True,https://monkeygallery.vn/pages/dining-menu,,https://dynamic-media-cdn.tripadvisor.com/media/photo-o/2d/ed/bc/a8/restaurant-interior.jpg,10.774264,106.703865,False,True,"['Fusion', 'Vietnamese', 'Healthy']"
8,17662928,Banana Mama Rooftop & Kitchen,https://www.tripadvisor.com/Restaurant_Review-g293925-d17662928-Reviews-Banana_Mama_Rooftop_Kitchen-Ho_Chi_Minh_City.html,1017,4.9,$$ - $$$,False,http://www.bananamamabar.com/Menu.pdf,,https://dynamic-media-cdn.tripadvisor.com/media/photo-o/29/8f/33/6b/sunset-at-banana-mama.jpg,10.765026,106.690636,False,False,['Dining bars']
9,19354552,P'ti Saigon,https://www.tripadvisor.com/Restaurant_Review-g293925-d19354552-Reviews-P_ti_Saigon-Ho_Chi_Minh_City.html,378,4.9,$$ - $$$,False,,https://tripadvisor.com/Commerce?p=Restaurants_SevenRooms&src=246829033&geo=19354552&from=Restaurants&area=reservation_button&slot=1&matchID=1&oos=0&cnt=1&silo=29025&bucket=870813&nrank=1&crank=1&clt=R&ttype=Restaurant&tm=328629120&managed=false&capped=false&gosox=E4dS6BmBGdrr2qeEMfyM4Ykh7g7kZZMQtwvX1r7-bZn0SG8wi-cOieoDR1eMjOtRNGi9I6nuBPmXmunT2F7Y2S2iHxamQKSSI-T0X9YWxF0&cs=1624f01b7bc2bf148e1d6599cebf1ca66_pxq,https://dynamic-media-cdn.tripadvisor.com/media/photo-o/29/66/84/06/celebration.jpg,10.804646,106.735825,False,False,"['French', 'Seafood', 'Mediterranean', 'European', 'Grill', 'Dining bars']"
10,10317597,B3 Steakhouse & Craft Beer,https://www.tripadvisor.com/Restaurant_Review-g293925-d10317597-Reviews-B3_Steakhouse_Craft_Beer-Ho_Chi_Minh_City.html,1175,4.8,$$ - $$$,False,,,https://dynamic-media-cdn.tripadvisor.com/media/photo-o/25/0a/f0/00/outdoor.jpg,10.773268,106.70506,False,False,"['Steakhouse', 'European']"
11,3354073,Reflections Restaurant,https://www.tripadvisor.com/Restaurant_Review-g293925-d3354073-Reviews-Reflections_Restaurant-Ho_Chi_Minh_City.html,751,4.9,$$$$,False,https://www.caravellehotel.com/wp-content/uploads/Reflections-A-la-carte-Menu-2025-A3-dai_small.pdf,J7n_CREATE_YOUR_OWN_yNt,https://dynamic-media-cdn.tripadvisor.com/media/photo-o/2b/31/53/5d/indulge-in-a-flawless.jpg,10.77635,106.70364,False,True,"['International', 'European', 'Asian']"
12,15201933,Ministry Social Club Saigon,https://www.tripadvisor.com/Restaurant_Review-g293925-d15201933-Reviews-Ministry_Social_Club_Saigon-Ho_Chi_Minh_City.html,104,4.9,$$ - $$$,False,https://menuhcmc.ministrysocial.club/,,https://dynamic-media-cdn.tripadvisor.com/media/photo-o/2c/9d/0b/fc/prime-minister-chamber.jpg,10.789099,106.70189,False,False,"['Bar', 'Asian', 'Korean', 'Diner']"
13,1717810,Cuc Gach Quan,https://www.tripadvisor.com/Restaurant_Review-g293925-d1717810-Reviews-Cuc_Gach_Quan-Ho_Chi_Minh_City.html,3026,4.4,$$ - $$$,False,http://www.cucgachquan.com.vn/vi/mam-com-gia-dinh-viet-nam/thuc-don,,https://dynamic-media-cdn.tripadvisor.com/media/photo-o/0a/c8/16/8a/ban-an-ngoai-tr-i-c-a.jpg,10.792905,106.68902,False,False,"['Asian', 'Vietnamese', 'Healthy']"
14,27843772,Tung's Restaurant,https://www.tripadvisor.com/Restaurant_Review-g293925-d27843772-Reviews-Tung_s_Restaurant-Ho_Chi_Minh_City.html,650,4.9,$,False,,,https://dynamic-media-cdn.tripadvisor.com/media/photo-o/2f/38/55/d2/best-seller-food.jpg,10.772394,106.696465,False,False,"['Asian', 'Vietnamese', 'Healthy']"
15,15190124,Mrsimple Steakhouse,https://www.tripadvisor.com/Restaurant_Review-g293925-d15190124-Reviews-Mrsimple_Steakhouse-Ho_Chi_Minh_City.html,75,4.6,$,False,http://www.mrsimplesteakhouse.com/menu,,https://dynamic-media-cdn.tripadvisor.com/media/photo-o/2f/84/90/0a/where-love-tastes-bette.jpg,10.78712,106.6922,False,True,"['Italian', 'French', 'Steakhouse', 'Fusion']"
16,28156327,L'Entrecote - Social Meating,https://www.tripadvisor.com/Restaurant_Review-g293925-d28156327-Reviews-L_Entrecote_Social_Meating-Ho_Chi_Minh_City.html,95,5.0,$$ - $$$,False,,,https://dynamic-media-cdn.tripadvisor.com/media/photo-o/2f/00/ea/56/l-entrecote-tenderloin.jpg,10.775372,106.70411,False,False,"['French', 'Steakhouse', 'European']"
17,11953280,Viet Kitchen,https://www.tripadvisor.com/Restaurant_Review-g293925-d11953280-Reviews-Viet_Kitchen-Ho_Chi_Minh_City.html,1104,4.9,$$ - $$$,False,https://drive.google.com/drive/folders/1_GEUMiSMh3kSL-iv7M710zF8TEbHaxxf,https://tripadvisor.com/Commerce?p=Restaurants_SevenRooms&src=251963129&geo=11953280&from=Restaurants&area=reservation_button&slot=1&matchID=1&oos=0&cnt=1&silo=29025&bucket=870813&nrank=1&crank=1&clt=R&ttype=Restaurant&tm=328629120&managed=false&capped=false&gosox=E4dS6BmBGdrr2qeEMfyM4Ykh7g7kZZMQtwvX1r7-bZn0SG8wi-cOieoDR1eMjOtRNGi9I6nuBPmXmunT2F7Y2RTKNKrai86yh4RTVXPVFQE&cs=175d2691835c2030f51db3e18e893a398_Abn,https://dynamic-media-cdn.tripadvisor.com/media/photo-o/1b/74/1a/08/restaurant-ambiance.jpg,10.774471,106.70633,False,False,"['Seafood', 'International', 'European', 'Asian', 'British', 'Vietnamese']"
18,27097927,Solobox,https://www.tripadvisor.com/Restaurant_Review-g293925-d27097927-Reviews-Solobox-Ho_Chi_Minh_City.html,57,4.9,$$ - $$$,True,,,https://dynamic-media-cdn.tripadvisor.com/media/photo-o/2c/f8/bc/9c/our-staff-is-always-ready.jpg,10.772076,106.69404,False,False,[]
19,12134206,Anan Saigon,https://www.tripadvisor.com/Restaurant_Review-g293925-d12134206-Reviews-Anan_Saigon-Ho_Chi_Minh_City.html,816,4.4,$$ - $$$,False,,,https://dynamic-media-cdn.tripadvisor.com/media/photo-o/0e/f7/a5/47/banh-xeo-tacos-huddle.jpg,10.771741,106.70286,False,False,"['International', 'Asian', 'Vietnamese']"
20,28052069,Hoang's Kitchen - Vietnamese Cuisine & Vegan Food,https://www.tripadvisor.com/Restaurant_Review-g293925-d28052069-Reviews-Hoang_s_Kitchen_Vietnamese_Cuisine_Vegan_Food-Ho_Chi_Minh_City.html,985,4.9,$$ - $$$,False,https://hoangskitchen.com/alarcart-menu/,,https://dynamic-media-cdn.tripadvisor.com/media/photo-o/2f/00/72/3b/best-seller-food.jpg,10.774218,106.6966,False,False,"['Asian', 'Vietnamese', 'Healthy']"
21,25378127,Bếp Cuốn Sài Gòn,https://www.tripadvisor.com/Restaurant_Review-g293925-d25378127-Reviews-B_p_Cu_n_Sai_Gon-Ho_Chi_Minh_City.html,44,4.9,$$ - $$$,False,https://drive.google.com/drive/folders/16LY_E5DAhPr20eLxU6-jVMI4X9nAKheN?usp=sharing,,https://dynamic-media-cdn.tripadvisor.com/media/photo-o/28/79/e7/13/best-choice.jpg,10.82293,106.62975,False,False,"['Asian', 'Vietnamese', 'Diner', 'Healthy']"
22,1742388,Saigon Café - Seafood Buffet Restaurant,https://www.tripadvisor.com/Restaurant_Review-g293925-d1742388-Reviews-Saigon_Cafe_Seafood_Buffet_Restaurant-Ho_Chi_Minh_City.html,1158,4.9,$$ - $$$,False,https://sgcf.sheratonsaigon.com/our-menus,https://tripadvisor.com/Commerce?p=Restaurants_SevenRooms&src=269947504&geo=1742388&from=Restaurants&area=reservation_button&slot=1&matchID=1&oos=0&cnt=1&silo=29025&bucket=870813&nrank=1&crank=1&clt=R&ttype=Restaurant&tm=328629120&managed=false&capped=false&gosox=E4dS6BmBGdrr2qeEMfyM4Ykh7g7kZZMQtwvX1r7-bZn0SG8wi-cOieoDR1eMjOtRNGi9I6nuBPmXmunT2F7Y2Q4sJShJf7HYvDIwwM67cIg&cs=1c1e84958fcdfe6fcccda1074d3509535_eWg,https://dynamic-media-cdn.tripadvisor.com/media/photo-o/2d/34/89/79/nh-buffet-h-i-s-n.jpg,10.776986,106.70579,False,True,"['Seafood', 'International', 'Asian']"
23,18927790,The Monkey Gallery Dining,https://www.tripadvisor.com/Restaurant_Review-g293925-d18927790-Reviews-The_Monkey_Gallery_Dining-Ho_Chi_Minh_City.html,156,4.6,$$$$,False,https://monkeygallery.vn/pages/dining-menu,,https://dynamic-media-cdn.tripadvisor.com/media/photo-o/2d/ed/bc/a8/restaurant-interior.jpg,10.774264,106.703865,False,True,"['Fusion', 'Vietnamese', 'Healthy']"
24,17642677,Sol Kitchen & Bar,https://www.tripadvisor.com/Restaurant_Review-g293925-d17642677-Reviews-Sol_Kitchen_Bar-Ho_Chi_Minh_City.html,158,4.8,$$ - $$$,False,,,https://dynamic-media-cdn.tripadvisor.com/media/photo-o/18/19/57/3a/open-kitchen-bar.jpg,10.774111,106.697136,False,False,"['Mexican', 'Latin', 'Spanish']"
25,8039278,Chanh Bistro Rooftop Saigon,https://www.tripadvisor.com/Restaurant_Review-g293925-d8039278-Reviews-Chanh_Bistro_Rooftop_Saigon-Ho_Chi_Minh_City.html,656,4.6,$$ - $$$,False,,,https://dynamic-media-cdn.tripadvisor.com/media/photo-o/15/6e/79/7e/dinner-spot.jpg,10.772762,106.695656,False,False,"['International', 'European']"
26,26794670,Phở Việt Nam - Phạm Hồng Thái,https://www.tripadvisor.com/Restaurant_Review-g293925-d26794670-Reviews-Ph_Vi_t_Nam_Ph_m_H_ng_Thai-Ho_Chi_Minh_City.html,200,4.8,$,False,http://phovietnam.vn/,,https://dynamic-media-cdn.tripadvisor.com/media/photo-o/2a/af/3e/68/ph-d-c-bi-t.jpg,10.771386,106.69614,False,True,"['Vietnamese', 'Soups', 'Indigenous']"
27,9705561,Le Corto,https://www.tripadvisor.com/Restaurant_Review-g293925-d9705561-Reviews-Le_Corto-Ho_Chi_Minh_City.html,1415,4.8,$$$$,False,,https://tripadvisor.com/Commerce?p=Restaurants_SevenRooms&src=246829035&geo=9705561&from=Restaurants&area=reservation_button&slot=1&matchID=1&oos=0&cnt=1&silo=29025&bucket=870813&nrank=1&crank=1&clt=R&ttype=Restaurant&tm=328629120&managed=false&capped=false&gosox=E4dS6BmBGdrr2qeEMfyM4Ykh7g7kZZMQtwvX1r7-bZn0SG8wi-cOieoDR1eMjOtRNGi9I6nuBPmXmunT2F7Y2UsIolSYsLVb2RF-DN8FmuM&cs=13a282f84c65334ef9b5b39a8ca07ac04_qeA,https://dynamic-media-cdn.tripadvisor.com/media/photo-o/14/e8/30/1e/truffle-soup-vge-from.jpg,10.777822,106.70465,False,False,"['French', 'Healthy']"
28,5484355,Banh Mi Huynh Hoa,https://www.tripadvisor.com/Restaurant_Review-g293925-d5484355-Reviews-Banh_Mi_Huynh_Hoa-Ho_Chi_Minh_City.html,1163,4.4,$,False,https://banhmihuynhhoa.vn/,,https://dynamic-media-cdn.tripadvisor.com/media/photo-o/2d/f6/ba/f0/v-i-tu-i-d-i-35-nam-g.jpg,10.771317,106.692474,False,False,"['Fast Food', 'Asian', 'Vietnamese']"
29,3400060,Buffet NINETEEN,https://www.tripadvisor.com/Restaurant_Review-g293925-d3400060-Reviews-Buffet_NINETEEN-Ho_Chi_Minh_City.html,699,4.9,$$$$,False,https://www.caravellehotel.com/wp-content/uploads/19_Seafood_new-2025_Web.pdf,pmn_CREATE_YOUR_OWN_T39,https://dynamic-media-cdn.tripadvisor.com/media/photo-o/2a/f7/d9/d5/canadian-lobsters.jpg,10.776503,106.70334,False,True,"['Seafood', 'International', 'European']"
30,15000545,Towa - Japanese Cuisine & Lounge,https://www.tripadvisor.com/Restaurant_Review-g293925-d15000545-Reviews-Towa_Japanese_Cuisine_Lounge-Ho_Chi_Minh_City.html,507,4.8,$$$$,False,https://bit.ly/TOWA-ALC2024,,https://dynamic-media-cdn.tripadvisor.com/media/photo-o/15/77/bc/8b/towa-venue-s-picutre.jpg,10.773129,106.70061,False,False,"['Japanese', 'Asian', 'Deli']"
31,18206918,Moo Beef Steak - 109 Ly Tu Trong,https://www.tripadvisor.com/Restaurant_Review-g293925-d18206918-Reviews-Moo_Beef_Steak_109_Ly_Tu_Trong-Ho_Chi_Minh_City.html,300,4.8,$$ - $$$,False,https://drive.google.com/file/d/1k6szZz0vapUp-4TWV2yJjr4DMmFlqKFy/view,,https://dynamic-media-cdn.tripadvisor.com/media/photo-o/28/ea/c9/58/happy-monday-50-on-steak.jpg,10.774175,106.69757,False,False,"['Steakhouse', 'Barbecue', 'Grill', 'Armenian']"
32,12711227,Hum Garden,https://www.tripadvisor.com/Restaurant_Review-g293925-d12711227-Reviews-Hum_Garden-Ho_Chi_Minh_City.html,96,4.8,$$ - $$$,False,https://hum-dining.vn/en/food-menu,,https://dynamic-media-cdn.tripadvisor.com/media/photo-o/2c/be/1d/4c/outdoor.jpg,10.804174,106.74412,False,False,"['Asian', 'Vietnamese', 'Healthy']"
33,4573158,Secret Garden - Vietnamese Restaurant,https://www.tripadvisor.com/Restaurant_Review-g293925-d4573158-Reviews-Secret_Garden_Vietnamese_Restaurant-Ho_Chi_Minh_City.html,2313,4.2,$$ - $$$,False,,,https://dynamic-media-cdn.tripadvisor.com/media/photo-o/0e/3c/5f/dc/img-20170123-135752-largejpg.jpg,10.77726,106.69972,False,False,"['Asian', 'Vietnamese', 'Healthy']"
34,12180159,Cocotte,https://www.tripadvisor.com/Restaurant_Review-g293925-d12180159-Reviews-Cocotte-Ho_Chi_Minh_City.html,264,4.4,$$ - $$$,True,https://www.cocotte.asia/menu-1,,https://dynamic-media-cdn.tripadvisor.com/media/photo-o/2a/5e/95/0c/cocotte-french-bistro.jpg,10.773821,106.698,False,True,"['French', 'European', 'Wine Bar']"
35,15190124,Mrsimple Steakhouse,https://www.tripadvisor.com/Restaurant_Review-g293925-d15190124-Reviews-Mrsimple_Steakhouse-Ho_Chi_Minh_City.html,75,4.6,$,True,http://www.mrsimplesteakhouse.com/menu,,https://dynamic-media-cdn.tripadvisor.com/media/photo-o/2f/84/90/0a/where-love-tastes-bette.jpg,10.78712,106.6922,False,True,"['Italian', 'French', 'Steakhouse', 'Fusion']"
36,26681281,Baieta Saigon,https://www.tripadvisor.com/Restaurant_Review-g293925-d26681281-Reviews-Baieta_Saigon-Ho_Chi_Minh_City.html,3,4.3,$$ - $$$,True,,,https://dynamic-media-cdn.tripadvisor.com/media/photo-o/2f/d7/3a/48/sunset-view.jpg,10.802878,106.72722,False,True,"['French', 'Pizza', 'Mediterranean']"
37,12820301,Mặn Mòi - Thảo Điền,https://www.tripadvisor.com/Restaurant_Review-g293925-d12820301-Reviews-M_n_Moi_Th_o_Di_n-Ho_Chi_Minh_City.html,76,4.5,$$ - $$$,False,https://manmoi.vn/en/food-menu/,,https://dynamic-media-cdn.tripadvisor.com/media/photo-o/2f/61/28/d5/m-n-moi-th-o-di-n-32.jpg,10.804872,106.744385,False,False,"['Asian', 'Vietnamese', 'Healthy', 'Indigenous']"
38,15530843,Lagom Café - Belgian Beer & Coffee Lounge,https://www.tripadvisor.com/Restaurant_Review-g293925-d15530843-Reviews-Lagom_Cafe_Belgian_Beer_Coffee_Lounge-Ho_Chi_Minh_City.html,719,5.0,$$ - $$$,False,https://lagomcafe.vn/lagom-cafe-menu/,,https://dynamic-media-cdn.tripadvisor.com/media/photo-o/1c/23/40/28/photo0jpg.jpg,10.787084,106.69126,False,False,"['Belgian', 'Cafe', 'European', 'Vietnamese']"
39,6503569,Quan Nem Restaurant,https://www.tripadvisor.com/Restaurant_Review-g293925-d6503569-Reviews-Quan_Nem_Restaurant-Ho_Chi_Minh_City.html,184,4.2,$,False,,,https://dynamic-media-cdn.tripadvisor.com/media/photo-o/16/ae/b5/17/photo5jpg.jpg,10.785831,106.70086,False,False,"['Asian', 'Vietnamese']"
40,15180069,Dahi Handi Indian Restaurant,https://www.tripadvisor.com/Restaurant_Review-g293925-d15180069-Reviews-Dahi_Handi_Indian_Restaurant-Ho_Chi_Minh_City.html,904,4.9,$$ - $$$,False,https://dahihandi.com.vn/foods/,,https://dynamic-media-cdn.tripadvisor.com/media/photo-o/2b/8d/ca/3f/dahi-handi-indian-restaurant.jpg,10.776307,106.70482,False,False,['Indian']
41,1122944,Tandoor,https://www.tripadvisor.com/Restaurant_Review-g293925-d1122944-Reviews-Tandoor-Ho_Chi_Minh_City.html,882,4.2,$$ - $$$,False,https://tandoorvietnam.com/hochiminh/indian-food/orders/,,https://dynamic-media-cdn.tripadvisor.com/media/photo-o/28/31/00/39/tandoor-s-restaurant.jpg,10.773184,106.70537,False,True,['Indian']
42,26794819,PHỞ VIỆT NAM - Bùi Bằng Đoàn,https://www.tripadvisor.com/Restaurant_Review-g293925-d26794819-Reviews-PH_VI_T_NAM_Bui_B_ng_Doan-Ho_Chi_Minh_City.html,11,4.9,$,True,,,https://dynamic-media-cdn.tripadvisor.com/media/photo-o/2b/b9/1c/8c/raw-beef-pho.jpg,10.730942,106.70864,False,True,"['Vietnamese', 'Indigenous']"
43,3741121,Pho Le,https://www.tripadvisor.com/Restaurant_Review-g293925-d3741121-Reviews-Pho_Le-Ho_Chi_Minh_City.html,519,4.4,$,False,,,https://dynamic-media-cdn.tripadvisor.com/media/photo-o/0f/a8/99/75/photo0jpg.jpg,10.755366,106.6735,False,False,"['Asian', 'Vietnamese', 'Soups']"
44,12926285,Italiani's Pizza,https://www.tripadvisor.com/Restaurant_Review-g293925-d12926285-Reviews-Italiani_s_Pizza-Ho_Chi_Minh_City.html,461,4.8,$$ - $$$,False,https://www.foodbooking.com/api/fb/qnr_r,,https://dynamic-media-cdn.tripadvisor.com/media/photo-o/1a/f0/74/2c/meal-at-italiani-s.jpg,10.778871,106.69822,False,False,"['Italian', 'Pizza']"
45,13322323,Rice Field,https://www.tripadvisor.com/Restaurant_Review-g293925-d13322323-Reviews-Rice_Field-Ho_Chi_Minh_City.html,784,4.4,$$ - $$$,False,https://sites.google.com/view/menuricefield/,,https://dynamic-media-cdn.tripadvisor.com/media/photo-o/1a/98/f4/0d/rice-field-rooftop.jpg,10.771869,106.70377,False,False,"['Asian', 'Vietnamese']"
46,3682545,Hum Cafe,https://www.tripadvisor.com/Restaurant_Review-g293925-d3682545-Reviews-Hum_Cafe-Ho_Chi_Minh_City.html,2611,4.7,$$ - $$$,False,https://hum-dining.vn/en/signature-tasting-set-menu/,,https://dynamic-media-cdn.tripadvisor.com/media/photo-o/23/8f/bc/21/hum-cafe.jpg,10.78077,106.692184,False,False,"['Asian', 'Vietnamese', 'Healthy']"
47,12180159,Cocotte,https://www.tripadvisor.com/Restaurant_Review-g293925-d12180159-Reviews-Cocotte-Ho_Chi_Minh_City.html,264,4.4,$$ - $$$,False,https://www.cocotte.asia/menu-1,,https://dynamic-media-cdn.tripadvisor.com/media/photo-o/2a/5e/95/0c/cocotte-french-bistro.jpg,10.773821,106.698,False,True,"['French', 'European', 'Wine Bar']"
48,2200413,Pizza 4P's Le Thanh Ton,https://www.tripadvisor.com/Restaurant_Review-g293925-d2200413-Reviews-Pizza_4P_s_Le_Thanh_Ton-Ho_Chi_Minh_City.html,3018,4.6,$$ - $$$,False,https://pizza4ps.com/menu/,,https://dynamic-media-cdn.tripadvisor.com/media/photo-o/0f/85/26/7a/soy-garlic-beef.jpg,10.781876,106.70514,False,False,"['Italian', 'Pizza']"
49,31913845,A Taste Of Saigon - Kitchen,https://www.tripadvisor.com/Restaurant_Review-g293925-d31913845-Reviews-A_Taste_Of_Saigon_Kitchen-Ho_Chi_Minh_City.html,248,4.9,$$ - $$$,False,,,https://dynamic-media-cdn.tripadvisor.com/media/photo-o/2e/4d/97/b8/opening-date.jpg,10.768589,106.693344,False,False,"['Asian', 'Vietnamese']"
50,11962759,Den Long - Home Cooked Vietnamese Restaurant,https://www.tripadvisor.com/Restaurant_Review-g293925-d11962759-Reviews-Den_Long_Home_Cooked_Vietnamese_Restaurant-Ho_Chi_Minh_City.html,1501,4.7,$$ - $$$,False,https://drive.google.com/open?id=1wMYgl2Xf2xN5m2-JM34wmqkW1NAqa_jZ,,https://dynamic-media-cdn.tripadvisor.com/media/photo-o/11/33/87/d7/ingredients-and-a-finished.jpg,10.769693,106.69077,False,False,['Vietnamese']
51,14134956,Benaras Indian Bistro,https://www.tripadvisor.com/Restaurant_Review-g293925-d14134956-Reviews-Benaras_Indian_Bistro-Ho_Chi_Minh_City.html,534,4.8,$$ - $$$,False,https://benaras.club/onlineorder/,,https://dynamic-media-cdn.tripadvisor.com/media/photo-o/28/4a/6a/83/new-benaras-bistro-21b.jpg,10.782396,106.70577,False,False,['Indian']
52,10060971,Natraj Indian Cuisine Restaurant,https://www.tripadvisor.com/Restaurant_Review-g293925-d10060971-Reviews-Natraj_Indian_Cuisine_Restaurant-Ho_Chi_Minh_City.html,832,4.7,$$ - $$$,False,,,https://dynamic-media-cdn.tripadvisor.com/media/photo-o/12/22/a2/6d/natraj-welcomes-you-to.jpg,10.771156,106.68998,False,False,"['Indian', 'Asian']"
53,27097927,Solobox,https://www.tripadvisor.com/Restaurant_Review-g293925-d27097927-Reviews-Solobox-Ho_Chi_Minh_City.html,57,4.9,$$ - $$$,True,,,https://dynamic-media-cdn.tripadvisor.com/media/photo-o/2c/f8/bc/9c/our-staff-is-always-ready.jpg,10.772076,106.69404,False,False,[]
54,13307422,Poke Saigon Ly Tu Trong,https://www.tripadvisor.com/Restaurant_Review-g293925-d13307422-Reviews-Poke_Saigon_Ly_Tu_Trong-Ho_Chi_Minh_City.html,1069,4.9,$$ - $$$,False,,,https://dynamic-media-cdn.tripadvisor.com/media/photo-o/12/4e/6b/96/our-salmon-poke-bowl.jpg,10.77719,106.70017,False,False,"['Japanese', 'American', 'Seafood', 'Healthy', 'Hawaiian']"
55,27157928,Palsaik Korean BBQ Vietnam - Đông Du,https://www.tripadvisor.com/Restaurant_Review-g293925-d27157928-Reviews-Palsaik_Korean_BBQ_Vietnam_Dong_Du-Ho_Chi_Minh_City.html,331,5.0,$$ - $$$,False,,,https://dynamic-media-cdn.tripadvisor.com/media/photo-o/2b/65/36/f0/palsaik-korean-bbq-vietnam.jpg,10.775903,106.704346,False,False,"['Asian', 'Korean']"
56,1309266,Vietnam House Restaurant,https://www.tripadvisor.com/Restaurant_Review-g293925-d1309266-Reviews-Vietnam_House_Restaurant-Ho_Chi_Minh_City.html,843,4.3,$$ - $$$,False,https://bit.ly/VNH-AlacarteMenu12,,https://dynamic-media-cdn.tripadvisor.com/media/photo-o/23/26/00/d4/main-lobby.jpg,10.774837,106.70414,False,False,"['Vietnamese', 'Healthy']"
57,2254119,Baba's Kitchen Bui Vien,https://www.tripadvisor.com/Restaurant_Review-g293925-d2254119-Reviews-Baba_s_Kitchen_Bui_Vien-Ho_Chi_Minh_City.html,3914,4.7,$$ - $$$,False,,,https://dynamic-media-cdn.tripadvisor.com/media/photo-o/18/61/d5/dc/best-place-for-mallus.jpg,10.765513,106.690285,False,False,['Indian']
58,14027845,Octo Tapas Restobar,https://www.tripadvisor.com/Restaurant_Review-g293925-d14027845-Reviews-Octo_Tapas_Restobar-Ho_Chi_Minh_City.html,214,4.6,$$ - $$$,False,,,https://dynamic-media-cdn.tripadvisor.com/media/photo-o/2a/c1/d0/88/octo-tapas-restobar-is.jpg,10.771977,106.7037,False,False,"['Bar', 'Mediterranean', 'European', 'Spanish', 'Wine Bar']"
59,25220822,Oriental Pearl Restaurant,https://www.tripadvisor.com/Restaurant_Review-g293925-d25220822-Reviews-Oriental_Pearl_Restaurant-Ho_Chi_Minh_City.html,211,4.9,$$$$,False,https://marriott.vserve-protecht.com/welcome/TEoxZFRRTTM4bXh5U0tKRDluK2VUZVh4Z0RxZTlwdDVqeksvYVFsY013ND0/1/1,https://tripadvisor.com/Commerce?p=Restaurants_SevenRooms&src=268844831&geo=25220822&from=Restaurants&area=reservation_button&slot=1&matchID=1&oos=0&cnt=1&silo=29025&bucket=870813&nrank=1&crank=1&clt=R&ttype=Restaurant&tm=328629121&managed=false&capped=false&gosox=E4dS6BmBGdrr2qeEMfyM4Ykh7g7kZZMQtwvX1r7-bZn0SG8wi-cOieoDR1eMjOtRNGi9I6nuBPmXmunT2F7Y2UG5sjbGT7AI5_QWZz08aOM&cs=1c8dd7bf4265ae4cd70a367ee5e36b00f_UCU,https://dynamic-media-cdn.tripadvisor.com/media/photo-o/2a/81/4c/71/when-traditional-vietnamese.jpg,10.795118,106.72182,False,False,"['Seafood', 'International', 'Vietnamese']"
60,8147173,Mặn Mòi - Tao Đàn,https://www.tripadvisor.com/Restaurant_Review-g293925-d8147173-Reviews-M_n_Moi_Tao_Dan-Ho_Chi_Minh_City.html,232,4.6,$$ - $$$,False,https://manmoi.vn/en/food-menu/,,https://dynamic-media-cdn.tripadvisor.com/media/photo-o/2c/be/25/d2/balcony.jpg,10.776886,106.70608,False,False,"['Vietnamese', 'Indigenous']"
61,12699961,Moo Beef Steak - Prime,https://www.tripadvisor.com/Restaurant_Review-g293925-d12699961-Reviews-Moo_Beef_Steak_Prime-Ho_Chi_Minh_City.html,378,4.8,$$$$,False,https://drive.google.com/file/d/1QPmzZMSExSZfgFt8Wg0uvgFzqjx7i0yJ/view?usp=drivesdk,,https://dynamic-media-cdn.tripadvisor.com/media/photo-o/12/e2/66/4d/our-atmosphere.jpg,10.773223,106.705666,False,True,['Steakhouse']
62,1569216,Hoa Túc,https://www.tripadvisor.com/Restaurant_Review-g293925-d1569216-Reviews-Hoa_Tuc-Ho_Chi_Minh_City.html,2626,4.4,$$ - $$$,False,https://hoatuc.com/menu/,,https://dynamic-media-cdn.tripadvisor.com/media/photo-o/27/a9/35/40/logo.jpg,10.778522,106.70363,False,False,"['Asian', 'Contemporary', 'Vietnamese']"
63,5601881,Hum Lounge,https://www.tripadvisor.com/Restaurant_Review-g293925-d5601881-Reviews-Hum_Lounge-Ho_Chi_Minh_City.html,1530,4.7,$$ - $$$,False,https://hum-dining.vn/en/food-menu,,https://dynamic-media-cdn.tripadvisor.com/media/photo-o/2c/be/1f/05/entrance.jpg,10.778762,106.69197,False,False,"['Asian', 'Vietnamese', 'Healthy']"
64,21167878,Kebaby,https://www.tripadvisor.com/Restaurant_Review-g293925-d21167878-Reviews-Kebaby-Ho_Chi_Minh_City.html,144,4.9,$$ - $$$,False,http://www.foodbooking.com/api/fb/m_b1_d8,,https://dynamic-media-cdn.tripadvisor.com/media/photo-o/1b/a4/9d/1b/kebaby-doner.jpg,10.789916,106.71245,False,False,"['Fast Food', 'International', 'Mediterranean', 'Turkish', 'Healthy', 'Street Food', 'Middle Eastern']"
65,27138077,Mayonaka Sushi,https://www.tripadvisor.com/Restaurant_Review-g293925-d27138077-Reviews-Mayonaka_Sushi-Ho_Chi_Minh_City.html,395,4.9,$$ - $$$,False,https://mayonakasushi.com/en/menu-en/,,https://dynamic-media-cdn.tripadvisor.com/media/photo-o/2c/67/1f/b3/interior.jpg,10.767059,106.69399,False,True,"['Japanese', 'Sushi', 'Asian', 'Fusion', 'Hokkaido cuisine', 'Japanese Fusion']"
66,28468515,De Tham Restaurant - Vietnamese Cuisine & Vegetarian Food,https://www.tripadvisor.com/Restaurant_Review-g293925-d28468515-Reviews-De_Tham_Restaurant_Vietnamese_Cuisine_Vegetarian_Food-Ho_Chi_Minh_City.html,296,4.9,$,False,https://dethamrestaurant.com/our-menus/food-menu/,,https://dynamic-media-cdn.tripadvisor.com/media/photo-o/2f/38/57/c8/best-traditional-vietnamese.jpg,10.768257,106.693634,False,False,"['Asian', 'Vietnamese']"
67,1232846,Pho Hoa Pasteur,https://www.tripadvisor.com/Restaurant_Review-g293925-d1232846-Reviews-Pho_Hoa_Pasteur-Ho_Chi_Minh_City.html,1132,4.3,$,False,,,https://dynamic-media-cdn.tripadvisor.com/media/photo-o/12/8d/35/1e/photo1jpg.jpg,10.786657,106.68922,False,False,['Vietnamese']
68,14956206,Vo Roof,https://www.tripadvisor.com/Restaurant_Review-g293925-d14956206-Reviews-Vo_Roof-Ho_Chi_Minh_City.html,736,4.8,$,False,https://bit.ly/voroof-online-order,,https://dynamic-media-cdn.tripadvisor.com/media/photo-o/29/14/f6/7f/caption.jpg,10.772119,106.70273,False,True,"['Asian', 'Vietnamese', 'Healthy']"
69,28052954,Hải Sản Hoàng Gia Cn 46 Phạm Văn Nghị,https://www.tripadvisor.com/Restaurant_Review-g293925-d28052954-Reviews-H_i_S_n_Hoang_Gia_Cn_46_Ph_m_Van_Ngh-Ho_Chi_Minh_City.html,11,4.9,$$$$,True,https://haisanhoanggia.com/pages/menu-che-bien,,https://dynamic-media-cdn.tripadvisor.com/media/photo-o/2d/2a/22/9f/king-crab.jpg,10.725457,106.706924,False,False,"['Seafood', 'Sushi', 'Vietnamese', 'Indigenous']"
70,27097927,Solobox,https://www.tripadvisor.com/Restaurant_Review-g293925-d27097927-Reviews-Solobox-Ho_Chi_Minh_City.html,57,4.9,$$ - $$$,True,,,https://dynamic-media-cdn.tripadvisor.com/media/photo-o/2c/f8/bc/9c/our-staff-is-always-ready.jpg,10.772076,106.69404,False,False,[]
71,26681281,Baieta Saigon,https://www.tripadvisor.com/Restaurant_Review-g293925-d26681281-Reviews-Baieta_Saigon-Ho_Chi_Minh_City.html,3,4.3,$$ - $$$,True,,,https://dynamic-media-cdn.tripadvisor.com/media/photo-o/2f/d7/3a/48/sunset-view.jpg,10.802878,106.72722,False,True,"['French', 'Pizza', 'Mediterranean']"
72,13131983,Phở Việt Nam,https://www.tripadvisor.com/Restaurant_Review-g293925-d13131983-Reviews-Ph_Vi_t_Nam-Ho_Chi_Minh_City.html,78,4.6,$,False,https://phovietnam.vn/thuc-don.html,,https://dynamic-media-cdn.tripadvisor.com/media/photo-o/2c/b2/a5/cf/pho-in-hot-stone-bowl.jpg,10.78813,106.68866,False,True,['Indigenous']
73,1741415,Shri Lifestyle Dining,https://www.tripadvisor.com/Restaurant_Review-g293925-d1741415-Reviews-Shri_Lifestyle_Dining-Ho_Chi_Minh_City.html,774,4.2,$$$$,False,https://linktr.ee/ShriLifestyleDining,,https://dynamic-media-cdn.tripadvisor.com/media/photo-o/2b/7d/5d/d5/caption.jpg,10.782705,106.69744,False,False,"['International', 'European', 'Asian']"
74,12130500,Poke Saigon,https://www.tripadvisor.com/Restaurant_Review-g293925-d12130500-Reviews-Poke_Saigon-Ho_Chi_Minh_City.html,1409,4.9,$,False,,,https://dynamic-media-cdn.tripadvisor.com/media/photo-o/0e/63/2b/de/ahi-tuna-poke-and-fresh.jpg,10.77411,106.70404,False,False,"['American', 'Seafood', 'Healthy', 'Hawaiian']"
75,23805244,MAGURO Studio,https://www.tripadvisor.com/Restaurant_Review-g293925-d23805244-Reviews-MAGURO_Studio-Ho_Chi_Minh_City.html,108,5.0,$$$$,False,,,https://dynamic-media-cdn.tripadvisor.com/media/photo-o/28/33/4d/f1/we-are-maguro-studio.jpg,10.77618,106.70494,False,False,"['Japanese', 'Seafood', 'Sushi', 'Asian', 'Healthy', 'Japanese Fusion']"
76,17115288,Café Marcel,https://www.tripadvisor.com/Restaurant_Review-g293925-d17115288-Reviews-Cafe_Marcel-Ho_Chi_Minh_City.html,431,4.7,$$ - $$$,False,,,https://dynamic-media-cdn.tripadvisor.com/media/photo-o/17/4b/c9/a4/cafe-marcel.jpg,10.804196,106.7336,False,False,"['Cafe', 'European', 'Deli']"
77,28052954,Hải Sản Hoàng Gia Cn 46 Phạm Văn Nghị,https://www.tripadvisor.com/Restaurant_Review-g293925-d28052954-Reviews-H_i_S_n_Hoang_Gia_Cn_46_Ph_m_Van_Ngh-Ho_Chi_Minh_City.html,11,4.9,$$$$,True,https://haisanhoanggia.com/pages/menu-che-bien,,https://dynamic-media-cdn.tripadvisor.com/media/photo-o/2d/2a/22/9f/king-crab.jpg,10.725457,106.706924,False,False,"['Seafood', 'Sushi', 'Vietnamese', 'Indigenous']"
78,1812864,Li Bai Authentic Cantonese Restaurant,https://www.tripadvisor.com/Restaurant_Review-g293925-d1812864-Reviews-Li_Bai_Authentic_Cantonese_Restaurant-Ho_Chi_Minh_City.html,1317,4.9,$$$$,False,https://www.libaisaigon.com/our-menus,https://tripadvisor.com/Commerce?p=Restaurants_SevenRooms&src=269947505&geo=1812864&from=Restaurants&area=reservation_button&slot=1&matchID=1&oos=0&cnt=1&silo=29025&bucket=870813&nrank=1&crank=1&clt=R&ttype=Restaurant&tm=328629123&managed=false&capped=false&gosox=E4dS6BmBGdrr2qeEMfyM4Ykh7g7kZZMQtwvX1r7-bZn0SG8wi-cOieoDR1eMjOtRNGi9I6nuBPmXmunT2F7Y2V4fhDsP3l2z-BEwzKNat2s&cs=1e4fc3beca2aff96d7029080eadd2d133_zrQ,https://dynamic-media-cdn.tripadvisor.com/media/photo-o/2f/48/ce/6e/vip-room.jpg,10.77558,106.70371,False,True,"['Chinese', 'Asian', 'Cantonese', 'Szechuan', 'Shanghai', 'Hong Kong']"
79,12703262,Mad Cow Saigon Wine & Grill,https://www.tripadvisor.com/Restaurant_Review-g293925-d12703262-Reviews-Mad_Cow_Saigon_Wine_Grill-Ho_Chi_Minh_City.html,397,4.7,$$$$,False,https://drive.google.com/drive/folders/1gj-hpbkXg0UDNqOWOQe7v0e6GNVtjzFZ?usp=sharing,,https://dynamic-media-cdn.tripadvisor.com/media/photo-o/29/66/02/0b/mad-about-wine-serious.jpg,10.764361,106.691666,False,False,"['Steakhouse', 'Bar', 'European', 'Grill', 'Wine Bar']"
80,13399767,The Olive Steakhouse,https://www.tripadvisor.com/Restaurant_Review-g293925-d13399767-Reviews-The_Olive_Steakhouse-Ho_Chi_Minh_City.html,300,4.6,$,False,https://theolivesteakhouse.com/menu,,https://dynamic-media-cdn.tripadvisor.com/media/photo-o/29/cf/bc/73/the-olive-s-interior.jpg,10.775873,106.70323,False,False,"['Steakhouse', 'European']"
81,2034882,La Villa French Restaurant by Thierry Mounon,https://www.tripadvisor.com/Restaurant_Review-g293925-d2034882-Reviews-La_Villa_French_Restaurant_by_Thierry_Mounon-Ho_Chi_Minh_City.html,1085,4.6,$$$$,False,,,https://dynamic-media-cdn.tripadvisor.com/media/photo-o/29/c5/e4/dd/gate.jpg,10.803941,106.732864,False,False,['French']
82,25547299,HOME Saigon - HOME Vietnamese Restaurant,https://www.tripadvisor.com/Restaurant_Review-g293925-d25547299-Reviews-HOME_Saigon_HOME_Vietnamese_Restaurant-Ho_Chi_Minh_City.html,87,4.9,$$$$,False,https://homevietnameserestaurants.com/wp-content/uploads/2023/05/home-saigon-a-la-carte-compressed.pdf,,https://dynamic-media-cdn.tripadvisor.com/media/photo-o/2b/5e/4a/92/home-saigon-cuisine.jpg,10.782842,106.6899,False,True,"['Vietnamese', 'Asian', 'Indigenous', 'Healthy']"
83,33074106,Hidden Charm Restaurant,https://www.tripadvisor.com/Restaurant_Review-g293925-d33074106-Reviews-Hidden_Charm_Restaurant-Ho_Chi_Minh_City.html,28,5.0,$$ - $$$,False,https://drive.google.com/file/d/1m2cVdZ9PhFo9CfWF48r2uFN4-z75y2rV/view?usp=sharing,,https://dynamic-media-cdn.tripadvisor.com/media/photo-o/2f/cd/27/b1/caption.jpg,10.80432,106.73635,False,True,"['Fusion', 'Vietnamese', 'Diner', 'Wine Bar', 'Indigenous']"
84,3411355,Ocean Palace,https://www.tripadvisor.com/Restaurant_Review-g293925-d3411355-Reviews-Ocean_Palace-Ho_Chi_Minh_City.html,226,4.1,$$ - $$$,False,,,https://dynamic-media-cdn.tripadvisor.com/media/photo-o/13/4c/f3/21/nice-ambience-nice-food.jpg,10.787204,106.704865,False,False,"['Chinese', 'Seafood', 'Asian', 'Cantonese', 'Shanghai', 'Hong Kong']"
85,25132683,The Indian House,https://www.tripadvisor.com/Restaurant_Review-g293925-d25132683-Reviews-The_Indian_House-Ho_Chi_Minh_City.html,299,4.8,$$ - $$$,False,,,https://dynamic-media-cdn.tripadvisor.com/media/photo-o/2e/72/9b/71/the-indian-house-30-ton.jpg,10.774132,106.70409,False,False,"['Indian', 'Asian', 'Grill']"
86,26855274,A Taste Of Saigon - Old Market,https://www.tripadvisor.com/Restaurant_Review-g293925-d26855274-Reviews-A_Taste_Of_Saigon_Old_Market-Ho_Chi_Minh_City.html,393,4.9,$$ - $$$,False,https://drive.google.com/drive/folders/1mSqToXYLezGNfyU5KbVXW7fzX6jNFgxW?usp=sharing,,https://dynamic-media-cdn.tripadvisor.com/media/photo-o/2c/98/30/e1/farewell-dinner.jpg,10.773845,106.70218,False,False,"['Asian', 'Vietnamese', 'Healthy']"
87,19682185,Home Saigon Restaurant,https://www.tripadvisor.com/Restaurant_Review-g293925-d19682185-Reviews-Home_Saigon_Restaurant-Ho_Chi_Minh_City.html,1007,4.8,$$ - $$$,False,https://homesaigon.info/dm/91-menu/,,https://dynamic-media-cdn.tripadvisor.com/media/photo-o/1a/4a/9b/ed/logo-of-home-saigon-restaurant.jpg,10.768289,106.69402,False,False,"['Asian', 'Fusion', 'Vietnamese']"
88,15190124,Mrsimple Steakhouse,https://www.tripadvisor.com/Restaurant_Review-g293925-d15190124-Reviews-Mrsimple_Steakhouse-Ho_Chi_Minh_City.html,75,4.6,$,True,http://www.mrsimplesteakhouse.com/menu,,https://dynamic-media-cdn.tripadvisor.com/media/photo-o/2f/84/90/0a/where-love-tastes-bette.jpg,10.78712,106.6922,False,True,"['Italian', 'French', 'Steakhouse', 'Fusion']"
89,4731745,Chuck's Burgers,https://www.tripadvisor.com/Restaurant_Review-g293925-d4731745-Reviews-Chuck_s_Burgers-Ho_Chi_Minh_City.html,694,4.4,$$ - $$$,False,http://www.cburgers.com/,,https://dynamic-media-cdn.tripadvisor.com/media/photo-o/17/25/24/ac/chuck-s-burgers.jpg,10.790149,106.71052,False,False,"['American', 'Bar', 'Fast Food', 'Diner']"
90,10758063,King Of Crab,https://www.tripadvisor.com/Restaurant_Review-g293925-d10758063-Reviews-King_Of_Crab-Ho_Chi_Minh_City.html,237,4.8,$$ - $$$,False,,,https://dynamic-media-cdn.tripadvisor.com/media/photo-o/10/f3/ed/24/khong-gian-quan.jpg,10.792338,106.64367,False,False,"['American', 'Cajun & Creole', 'Seafood', 'Asian', 'Vietnamese', 'Singaporean']"
91,10865662,Pizza 4P's Ben Thanh,https://www.tripadvisor.com/Restaurant_Review-g293925-d10865662-Reviews-Pizza_4P_s_Ben_Thanh-Ho_Chi_Minh_City.html,871,4.6,$$ - $$$,False,https://pizza4ps.com/menu/,,https://dynamic-media-cdn.tripadvisor.com/media/photo-o/13/57/ee/ac/overview.jpg,10.773461,106.69765,False,False,"['Italian', 'Pizza', 'European', 'Japanese Fusion']"
92,15686405,Nhà Hàng Bê Vàng,https://www.tripadvisor.com/Restaurant_Review-g293925-d15686405-Reviews-Nha_Hang_Be_Vang-Ho_Chi_Minh_City.html,182,5.0,$$$$,False,http://bevang.vn/menu.html,,https://dynamic-media-cdn.tripadvisor.com/media/photo-o/2b/af/22/d6/over-24-years-in-business.jpg,10.760879,106.68301,False,False,"['Chinese', 'Japanese', 'Seafood', 'Sushi', 'Asian', 'Vietnamese']"
93,27725665,Today With You,https://www.tripadvisor.com/Restaurant_Review-g293925-d27725665-Reviews-Today_With_You-Ho_Chi_Minh_City.html,114,4.9,$$ - $$$,False,https://drive.google.com/file/d/1kFdzCSAY56IQbcJA9N30M40w6bg0YxeZ/view?usp=sharing,,https://dynamic-media-cdn.tripadvisor.com/media/photo-o/2f/3b/e7/c3/today-with-you-vibe.jpg,10.808084,106.73275,False,False,"['Italian', 'Pizza', 'Korean']"
94,26223283,Ola Hale - Restaurant & Bar,https://www.tripadvisor.com/Restaurant_Review-g293925-d26223283-Reviews-Ola_Hale_Restaurant_Bar-Ho_Chi_Minh_City.html,125,5.0,$$ - $$$,False,,,https://dynamic-media-cdn.tripadvisor.com/media/photo-o/2f/fb/c6/17/pink-church.jpg,10.78881,106.69088,False,False,['Contemporary']
95,15000626,Lai Restaurant,https://www.tripadvisor.com/Restaurant_Review-g293925-d15000626-Reviews-Lai_Restaurant-Ho_Chi_Minh_City.html,654,4.8,$$$$,False,https://bit.ly/LAI-ALCMenu2025,,https://dynamic-media-cdn.tripadvisor.com/media/photo-o/15/c3/27/68/lai.jpg,10.773104,106.70054,False,False,"['Chinese', 'Asian']"
96,25458014,Bánh Mì Bà Huynh - Madam Win,https://www.tripadvisor.com/Restaurant_Review-g293925-d25458014-Reviews-Banh_Mi_Ba_Huynh_Madam_Win-Ho_Chi_Minh_City.html,114,4.9,$$ - $$$,False,https://banhmibahuynh.vn/menu-banh-mi-ba-huynh/,,https://dynamic-media-cdn.tripadvisor.com/media/photo-o/2a/5a/72/8e/banh-mi-ba-huynh-madam.jpg,10.766279,106.68816,False,True,"['Fast Food', 'Asian', 'Vietnamese', 'Indigenous']"
97,1122087,Bánh Xèo 46A,https://www.tripadvisor.com/Restaurant_Review-g293925-d1122087-Reviews-Banh_Xeo_46A-Ho_Chi_Minh_City.html,501,4.0,$,False,,,https://dynamic-media-cdn.tripadvisor.com/media/photo-o/15/c1/0e/11/lrm-export-11247665172946.jpg,10.789595,106.69133,False,False,"['Vietnamese', 'Street Food']"
98,7157553,Noir Dining In The Dark,https://www.tripadvisor.com/Restaurant_Review-g293925-d7157553-Reviews-Noir_Dining_In_The_Dark-Ho_Chi_Minh_City.html,2215,4.8,,False,https://www.noirdininginthedark.com/menu.html,,https://dynamic-media-cdn.tripadvisor.com/media/photo-o/28/ff/8d/72/a-culinary-journey-of.jpg,10.786635,106.694695,False,False,"['International', 'European', 'Asian', 'Fusion', 'Vietnamese', 'Healthy']"
99,5774553,The View Rooftop Bar & Eatery,https://www.tripadvisor.com/Restaurant_Review-g293925-d5774553-Reviews-The_View_Rooftop_Bar_Eatery-Ho_Chi_Minh_City.html,1111,4.4,$$ - $$$,False,https://menutheview.my.canva.site/,,https://dynamic-media-cdn.tripadvisor.com/media/photo-o/2e/63/6a/9b/the-view-rooftop-the.jpg,10.765722,106.69101,False,False,"['Asian', 'Vietnamese', 'Street Food']"
100,25269848,The Jackaroo Bar And Grill,https://www.tripadvisor.com/Restaurant_Review-g293925-d25269848-Reviews-The_Jackaroo_Bar_And_Grill-Ho_Chi_Minh_City.html,90,5.0,$$ - $$$,False,,,https://dynamic-media-cdn.tripadvisor.com/media/photo-o/2a/a9/9d/7d/caption.jpg,10.77165,106.69678,False,False,"['Bar', 'Barbecue', 'Pub', 'Australian', 'Gastropub']"
101,25205051,Lua Dai Viet Restaurant,https://www.tripadvisor.com/Restaurant_Review-g293925-d25205051-Reviews-Lua_Dai_Viet_Restaurant-Ho_Chi_Minh_City.html,323,4.8,$$ - $$$,False,https://www.slideshare.net/LuaDaiVietRestaurant/menu-lua-dai-viet-restaurant-update-012023,,https://dynamic-media-cdn.tripadvisor.com/media/photo-o/2b/e9/da/90/restautant-bui-vien-street.jpg,10.767516,106.693794,False,False,"['Steakhouse', 'Seafood', 'Asian', 'Deli', 'Vietnamese', 'Diner', 'Healthy', 'Indigenous']"
102,25219332,The Cloud,https://www.tripadvisor.com/Restaurant_Review-g293925-d25219332-Reviews-The_Cloud-Ho_Chi_Minh_City.html,137,5.0,$$ - $$$,False,https://marriott.vserve-protecht.com/welcome/SUo5Y3RjcWUwWEF5SGxTYzBWZUdzTUlQNWhMOTArSkpWMzhDRGxIMnZMMD0/1/1,https://tripadvisor.com/Commerce?p=Restaurants_SevenRooms&src=256154595&geo=25219332&from=Restaurants&area=reservation_button&slot=1&matchID=1&oos=0&cnt=1&silo=29025&bucket=870813&nrank=1&crank=1&clt=R&ttype=Restaurant&tm=328629123&managed=false&capped=false&gosox=E4dS6BmBGdrr2qeEMfyM4Ykh7g7kZZMQtwvX1r7-bZn0SG8wi-cOieoDR1eMjOtRNGi9I6nuBPmXmunT2F7Y2cgfPvNdI830DVgq7boJ7HM&cs=1204e7b0311e291103f070fa1bafd9790_m0E,https://dynamic-media-cdn.tripadvisor.com/media/photo-o/29/b7/b0/ab/interior.jpg,10.795134,106.72181,False,False,"['Bar', 'Cafe', 'International', 'Wine Bar']"
103,7361488,My Banh Mi ,https://www.tripadvisor.com/Restaurant_Review-g293925-d7361488-Reviews-My_Banh_Mi-Ho_Chi_Minh_City.html,1538,4.4,$,False,http://www.mybanhmivn.com/menu,,https://dynamic-media-cdn.tripadvisor.com/media/photo-o/08/9b/31/d3/my-banh-mi.jpg,10.779182,106.70027,False,False,"['Vietnamese', 'Healthy']"
104,18927790,The Monkey Gallery Dining,https://www.tripadvisor.com/Restaurant_Review-g293925-d18927790-Reviews-The_Monkey_Gallery_Dining-Ho_Chi_Minh_City.html,156,4.6,$$$$,True,https://monkeygallery.vn/pages/dining-menu,,https://dynamic-media-cdn.tripadvisor.com/media/photo-o/2d/ed/bc/a8/restaurant-interior.jpg,10.774264,106.703865,False,True,"['Fusion', 'Vietnamese', 'Healthy']"
105,27097927,Solobox,https://www.tripadvisor.com/Restaurant_Review-g293925-d27097927-Reviews-Solobox-Ho_Chi_Minh_City.html,57,4.9,$$ - $$$,True,,,https://dynamic-media-cdn.tripadvisor.com/media/photo-o/2c/f8/bc/9c/our-staff-is-always-ready.jpg,10.772076,106.69404,False,False,[]
106,26794670,Phở Việt Nam - Phạm Hồng Thái,https://www.tripadvisor.com/Restaurant_Review-g293925-d26794670-Reviews-Ph_Vi_t_Nam_Ph_m_H_ng_Thai-Ho_Chi_Minh_City.html,200,4.8,$,True,http://phovietnam.vn/,,https://dynamic-media-cdn.tripadvisor.com/media/photo-o/2a/af/3e/68/ph-d-c-bi-t.jpg,10.771386,106.69614,False,True,"['Vietnamese', 'Soups', 'Indigenous']"
107,27998958,Papaya Papa,https://www.tripadvisor.com/Restaurant_Review-g293925-d27998958-Reviews-Papaya_Papa-Ho_Chi_Minh_City.html,136,5.0,$$ - $$$,False,https://drive.google.com/file/d/1_ez7uVlrt7dxjZtpn9Qdmw1ldwkJewM-/view,,https://dynamic-media-cdn.tripadvisor.com/media/photo-o/2e/b9/d7/8c/amazing-rooftop-in-the.jpg,10.78322,106.69746,False,False,"['European', 'Diner', 'Middle Eastern']"
108,6864663,The Vintage Emporium Đa Kao,https://www.tripadvisor.com/Restaurant_Review-g293925-d6864663-Reviews-The_Vintage_Emporium_Da_Kao-Ho_Chi_Minh_City.html,411,4.6,$$ - $$$,False,,,https://dynamic-media-cdn.tripadvisor.com/media/photo-o/0b/ed/dd/37/the-vintage-emporium.jpg,10.790077,106.69935,False,False,"['Cafe', 'European', 'Healthy']"
109,15338909,The Cafe Apartments,https://www.tripadvisor.com/Restaurant_Review-g293925-d15338909-Reviews-The_Cafe_Apartments-Ho_Chi_Minh_City.html,117,4.0,$$ - $$$,False,,,https://dynamic-media-cdn.tripadvisor.com/media/photo-o/19/27/c3/fc/view-from-street.jpg,10.774102,106.70409,False,False,"['Japanese', 'Cafe', 'Vietnamese', 'Street Food']"
110,1577234,Ngon Restaurant,https://www.tripadvisor.com/Restaurant_Review-g293925-d1577234-Reviews-Ngon_Restaurant-Ho_Chi_Minh_City.html,4740,3.9,$$ - $$$,False,,,https://dynamic-media-cdn.tripadvisor.com/media/photo-o/2e/1e/23/d5/caption.jpg,10.777418,106.69967,False,False,"['Asian', 'Vietnamese']"
111,13738133,Quince Eatery,https://www.tripadvisor.com/Restaurant_Review-g293925-d13738133-Reviews-Quince_Eatery-Ho_Chi_Minh_City.html,173,4.6,$$ - $$$,False,,,https://dynamic-media-cdn.tripadvisor.com/media/photo-o/13/2a/ab/6f/quince-eatery.jpg,10.766212,106.69931,False,False,"['Mediterranean', 'European', 'Grill']"
112,28052954,Hải Sản Hoàng Gia Cn 46 Phạm Văn Nghị,https://www.tripadvisor.com/Restaurant_Review-g293925-d28052954-Reviews-H_i_S_n_Hoang_Gia_Cn_46_Ph_m_Van_Ngh-Ho_Chi_Minh_City.html,11,4.9,$$$$,True,https://haisanhoanggia.com/pages/menu-che-bien,,https://dynamic-media-cdn.tripadvisor.com/media/photo-o/2d/2a/22/9f/king-crab.jpg,10.725457,106.706924,False,False,"['Seafood', 'Sushi', 'Vietnamese', 'Indigenous']"
113,3858605,Kabin,https://www.tripadvisor.com/Restaurant_Review-g293925-d3858605-Reviews-Kabin-Ho_Chi_Minh_City.html,1341,4.9,$$$$,False,https://drive.google.com/drive/folders/1-hH3u2b53Pb6UdTWH8ckFbaV-owatLtn,https://tripadvisor.com/Commerce?p=Restaurants_SevenRooms&src=251963130&geo=3858605&from=Restaurants&area=reservation_button&slot=1&matchID=1&oos=0&cnt=1&silo=29025&bucket=870813&nrank=1&crank=1&clt=R&ttype=Restaurant&tm=328629124&managed=false&capped=false&gosox=E4dS6BmBGdrr2qeEMfyM4Ykh7g7kZZMQtwvX1r7-bZn0SG8wi-cOieoDR1eMjOtRNGi9I6nuBPmXmunT2F7Y2dFhTwGuAsoC3sFaA6T1OaE&cs=1bab98754c09cb4ba8abc478791150624_NIU,https://dynamic-media-cdn.tripadvisor.com/media/photo-o/26/2c/2c/f4/restaurant-photo-with.jpg,10.774372,106.70625,False,False,"['Chinese', 'Cantonese', 'Shanghai', 'Hong Kong']"
114,32976850,The Park Rooftop & Lounge,https://www.tripadvisor.com/Restaurant_Review-g293925-d32976850-Reviews-The_Park_Rooftop_Lounge-Ho_Chi_Minh_City.html,75,5.0,$$ - $$$,False,,,https://dynamic-media-cdn.tripadvisor.com/media/photo-o/2f/54/33/af/di-m-nh-n-c-a-the-park.jpg,10.766586,106.69116,False,False,"['Bar', 'Pub']"
115,1928671,The Deck Saigon,https://www.tripadvisor.com/Restaurant_Review-g293925-d1928671-Reviews-The_Deck_Saigon-Ho_Chi_Minh_City.html,1389,4.2,$$$$,False,,,https://dynamic-media-cdn.tripadvisor.com/media/photo-o/04/67/ca/16/the-deck-saigon.jpg,10.806765,106.74457,False,False,"['Asian', 'Fusion']"
116,4232534,The Daun Restaurant,https://www.tripadvisor.com/Restaurant_Review-g293925-d4232534-Reviews-The_Daun_Restaurant-Ho_Chi_Minh_City.html,526,4.4,$$ - $$$,False,http://bit.ly/TheDaunRestaurantVN,,https://dynamic-media-cdn.tripadvisor.com/media/photo-o/15/2f/b2/f1/the-daun-restaurant.jpg,10.772846,106.69711,False,False,"['European', 'Asian', 'Vietnamese', 'Singaporean', 'Malaysian']"
117,8127469,Chit Chat at the Café,https://www.tripadvisor.com/Restaurant_Review-g293925-d8127469-Reviews-Chit_Chat_at_the_Cafe-Ho_Chi_Minh_City.html,351,4.9,$$ - $$$,False,https://hochiminhcity.equatorial.com/wp-content/uploads/sites/69/2020/02/Chit-Chat-Menu-Ala-Carte-full-2023.pdf,,https://dynamic-media-cdn.tripadvisor.com/media/photo-o/2c/3b/f4/c2/private-room-at-chit.jpg,10.763377,106.67906,False,False,"['Seafood', 'International', 'Cantonese', 'Hong Kong', 'NorthWestern Chinese']"
118,27514558,Pandan Leaf Saigon Restaurant & Rooftop Bar,https://www.tripadvisor.com/Restaurant_Review-g293925-d27514558-Reviews-Pandan_Leaf_Saigon_Restaurant_Rooftop_Bar-Ho_Chi_Minh_City.html,309,4.8,$$ - $$$,False,https://drive.google.com/drive/folders/1u-Ge0la9TsAVtZdyhOMjr12wjN1Ni8RU,,https://dynamic-media-cdn.tripadvisor.com/media/photo-o/2b/fe/39/6c/pandan-leaf-saigon-rolls.jpg,10.769524,106.69582,False,False,"['Asian', 'Vietnamese', 'Healthy']"
119,10744326,33 De Tham Restaurant,https://www.tripadvisor.com/Restaurant_Review-g293925-d10744326-Reviews-33_De_Tham_Restaurant-Ho_Chi_Minh_City.html,342,4.6,$,False,,,https://dynamic-media-cdn.tripadvisor.com/media/photo-o/11/c2/22/ce/photo1jpg.jpg,10.763107,106.69577,False,False,"['Seafood', 'Asian', 'Grill', 'Vietnamese']"
120,7844724,Bún Chả 145,https://www.tripadvisor.com/Restaurant_Review-g293925-d7844724-Reviews-Bun_Ch_145-Ho_Chi_Minh_City.html,2421,4.6,$,False,,,https://dynamic-media-cdn.tripadvisor.com/media/photo-o/07/bd/7e/02/getlstd-property-photo.jpg,10.766266,106.69154,False,False,"['Asian', 'Deli', 'Grill', 'Vietnamese', 'Indigenous']"
121,25579420,Nhà hàng The Canvas,https://www.tripadvisor.com/Restaurant_Review-g293925-d25579420-Reviews-Nha_hang_The_Canvas-Ho_Chi_Minh_City.html,69,5.0,$$ - $$$,False,https://www.lottehotel.com/saigon-hotel/en/dining/restaurant-the-canvas.html,,https://dynamic-media-cdn.tripadvisor.com/media/photo-o/29/2f/69/d6/interior.jpg,10.778643,106.70677,False,False,"['Japanese', 'Seafood', 'International', 'Sushi', 'European', 'Asian', 'Healthy']"
122,2492572,Pho Quynh,https://www.tripadvisor.com/Restaurant_Review-g293925-d2492572-Reviews-Pho_Quynh-Ho_Chi_Minh_City.html,994,4.2,$,False,,,https://dynamic-media-cdn.tripadvisor.com/media/photo-o/0d/de/f3/54/photo0jpg.jpg,10.767465,106.69058,False,False,"['Asian', 'Vietnamese', 'Soups']"
123,12180159,Cocotte,https://www.tripadvisor.com/Restaurant_Review-g293925-d12180159-Reviews-Cocotte-Ho_Chi_Minh_City.html,264,4.4,$$ - $$$,True,https://www.cocotte.asia/menu-1,,https://dynamic-media-cdn.tripadvisor.com/media/photo-o/2a/5e/95/0c/cocotte-french-bistro.jpg,10.773821,106.698,False,True,"['French', 'European', 'Wine Bar']"
124,7793689,Sushi Sun,https://www.tripadvisor.com/Restaurant_Review-g293925-d7793689-Reviews-Sushi_Sun-Ho_Chi_Minh_City.html,342,4.7,$$ - $$$,False,http://sushisunrestaurant.com/wp-content/uploads/2017/11/Sushi-Sun-a-la-carte-menu-web.pdf,,https://dynamic-media-cdn.tripadvisor.com/media/photo-o/26/60/fd/c4/caption.jpg,10.764614,106.69157,False,False,"['Japanese', 'Sushi', 'Asian', 'Grill']"
125,8614066,Quán Bụi,https://www.tripadvisor.com/Restaurant_Review-g293925-d8614066-Reviews-Quan_B_i-Ho_Chi_Minh_City.html,269,4.5,$$ - $$$,False,https://quan-bui.com/3d-flip-book/quan-bui-menu/,,https://dynamic-media-cdn.tripadvisor.com/media/photo-o/23/f6/1f/d7/quan-b-i.jpg,10.772649,106.69669,False,False,['Vietnamese']
126,26851167,ST25 by KOTO,https://www.tripadvisor.com/Restaurant_Review-g293925-d26851167-Reviews-ST25_by_KOTO-Ho_Chi_Minh_City.html,425,4.9,$$ - $$$,False,https://drive.google.com/file/d/1CFu2hV1PqdwigPLVUX8eH6v4YhVzhC3K/view?usp=sharing,,https://dynamic-media-cdn.tripadvisor.com/media/photo-o/2a/de/9a/2e/elevated-vietnamese-cuisine.jpg,10.784361,106.70271,False,False,"['Asian', 'Vietnamese', 'Healthy']"
127,27523395,Twilight Sky Bar Sai Gon,https://www.tripadvisor.com/Restaurant_Review-g293925-d27523395-Reviews-Twilight_Sky_Bar_Sai_Gon-Ho_Chi_Minh_City.html,376,5.0,$$$$,False,https://skybars.vn/wp-content/uploads/2024/06/Twilight-Sky-Bar-Drinks-10.6.2024.pdf,,https://dynamic-media-cdn.tripadvisor.com/media/photo-o/2e/21/7a/27/twilight-sky-bar-aerial.jpg,10.773142,106.695724,False,False,"['Bar', 'European', 'Fusion', 'Dining bars']"
128,20975162,Parkhaus,https://www.tripadvisor.com/Restaurant_Review-g293925-d20975162-Reviews-Parkhaus-Ho_Chi_Minh_City.html,25,4.9,$$ - $$$,False,https://www.parkhaus.vn/food,,https://dynamic-media-cdn.tripadvisor.com/media/photo-o/2d/7e/ab/d6/oktoberfest-platter.jpg,10.76929,106.69162,False,False,"['German', 'Bar', 'European', 'Beer restaurants']"
129,32849001,Phở Phát Tài,https://www.tripadvisor.com/Restaurant_Review-g293925-d32849001-Reviews-Ph_Phat_Tai-Ho_Chi_Minh_City.html,143,5.0,$$ - $$$,False,https://phophattai.com.vn/san-pham,,https://dynamic-media-cdn.tripadvisor.com/media/photo-o/2f/b1/9d/00/ph-d-c-bi-t.jpg,10.767201,106.694374,False,True,"['Asian', 'Vietnamese', 'Healthy', 'Street Food', 'Soups']"
130,4475963,Quán Bụi Original,https://www.tripadvisor.com/Restaurant_Review-g293925-d4475963-Reviews-Quan_B_i_Original-Ho_Chi_Minh_City.html,1068,4.3,$$ - $$$,False,https://quan-bui.com/3d-flip-book/quan-bui-menu/,,https://dynamic-media-cdn.tripadvisor.com/media/photo-o/1b/b4/55/3c/9.jpg,10.781316,106.70587,False,False,['Vietnamese']
131,1382250,Wine Bar at Level 23,https://www.tripadvisor.com/Restaurant_Review-g293925-d1382250-Reviews-Wine_Bar_at_Level_23-Ho_Chi_Minh_City.html,479,4.8,$$$$,False,https://drive.google.com/file/d/1uXqCo9O4M48r88H0SbOrO8IYTsO2r6L4/view?usp=sharing,,https://dynamic-media-cdn.tripadvisor.com/media/photo-o/2d/16/59/49/wine-bar-level-23-at.jpg,10.775522,106.70342,False,True,['Bar']
132,17806822,Laang Restaurant,https://www.tripadvisor.com/Restaurant_Review-g293925-d17806822-Reviews-Laang_Restaurant-Ho_Chi_Minh_City.html,89,4.8,$$ - $$$,False,https://laangsaigon.com/3d-flip-book/laang-menu/,,https://dynamic-media-cdn.tripadvisor.com/media/photo-o/18/82/2c/23/getlstd-property-photo.jpg,10.803324,106.7363,False,False,"['Asian', 'Vietnamese', 'Healthy']"
133,6601040,Cafe de L’Opera,https://www.tripadvisor.com/Restaurant_Review-g293925-d6601040-Reviews-Cafe_de_L_Opera-Ho_Chi_Minh_City.html,589,4.8,$$$$,False,https://www.caravellehotel.com/wp-content/uploads/CDO_Drink-List-04.2025.pdf,5tt_CREATE_YOUR_OWN_Xsw,https://dynamic-media-cdn.tripadvisor.com/media/photo-o/29/7c/cf/59/cafe-de-l-opera.jpg,10.776006,106.70328,False,True,"['Southwestern', 'Bar', 'Cafe', 'International', 'European']"
134,7155150,La Fiesta,https://www.tripadvisor.com/Restaurant_Review-g293925-d7155150-Reviews-La_Fiesta-Ho_Chi_Minh_City.html,859,4.6,$$ - $$$,False,,,https://dynamic-media-cdn.tripadvisor.com/media/photo-o/16/45/fd/4c/photo4jpg.jpg,10.769236,106.69727,False,False,['Mexican']
135,7152997,Sorae,https://www.tripadvisor.com/Restaurant_Review-g293925-d7152997-Reviews-Sorae-Ho_Chi_Minh_City.html,556,4.5,$$$$,False,https://www.soraesushi.com/en/menu/,,https://dynamic-media-cdn.tripadvisor.com/media/photo-o/28/5d/76/80/sorae-logo.jpg,10.771595,106.70434,False,False,"['Japanese', 'Sushi', 'Asian', 'Grill']"
136,11887076,Heart Of Darkness Craft Brewery Saigon,https://www.tripadvisor.com/Restaurant_Review-g293925-d11887076-Reviews-Heart_Of_Darkness_Craft_Brewery_Saigon-Ho_Chi_Minh_City.html,743,4.7,$$ - $$$,False,https://heartofdarknessbrewery.com/wp-content/uploads/2024/02/Heart-of-Darkness-Saigon-Vietnam-Food-Menu-2024.pdf,,https://dynamic-media-cdn.tripadvisor.com/media/photo-o/19/75/d3/24/bewdiful-burgers.jpg,10.77987,106.7029,False,False,"['Brew Pub', 'Beer restaurants']"
137,23087722,Å by TUNG,https://www.tripadvisor.com/Restaurant_Review-g293925-d23087722-Reviews-A_by_TUNG-Ho_Chi_Minh_City.html,62,4.5,$$$$,False,https://www.abytung.com/tastingmenu,,https://dynamic-media-cdn.tripadvisor.com/media/photo-o/28/b3/bb/19/main-dining-room.jpg,10.792613,106.690575,False,False,"['International', 'European', 'Asian', 'Contemporary', 'Indigenous']"
138,7082831,San Fu Lou Cantonese Kitchen - Ab Tower,https://www.tripadvisor.com/Restaurant_Review-g293925-d7082831-Reviews-San_Fu_Lou_Cantonese_Kitchen_Ab_Tower-Ho_Chi_Minh_City.html,572,4.3,$$ - $$$,False,https://sanfulou.com/en/menu/,,https://dynamic-media-cdn.tripadvisor.com/media/photo-o/06/91/80/93/getlstd-property-photo.jpg,10.770218,106.69441,False,False,"['Chinese', 'Asian', 'Cantonese', 'Shanghai', 'Hong Kong']"
139,18927790,The Monkey Gallery Dining,https://www.tripadvisor.com/Restaurant_Review-g293925-d18927790-Reviews-The_Monkey_Gallery_Dining-Ho_Chi_Minh_City.html,156,4.6,$$$$,True,https://monkeygallery.vn/pages/dining-menu,,https://dynamic-media-cdn.tripadvisor.com/media/photo-o/2d/ed/bc/a8/restaurant-interior.jpg,10.774264,106.703865,False,True,"['Fusion', 'Vietnamese', 'Healthy']"
140,27097927,Solobox,https://www.tripadvisor.com/Restaurant_Review-g293925-d27097927-Reviews-Solobox-Ho_Chi_Minh_City.html,57,4.9,$$ - $$$,True,,,https://dynamic-media-cdn.tripadvisor.com/media/photo-o/2c/f8/bc/9c/our-staff-is-always-ready.jpg,10.772076,106.69404,False,False,[]
141,26681281,Baieta Saigon,https://www.tripadvisor.com/Restaurant_Review-g293925-d26681281-Reviews-Baieta_Saigon-Ho_Chi_Minh_City.html,3,4.3,$$ - $$$,True,,,https://dynamic-media-cdn.tripadvisor.com/media/photo-o/2f/d7/3a/48/sunset-view.jpg,10.802878,106.72722,False,True,"['French', 'Pizza', 'Mediterranean']"
142,17122565,"Shamballa Vegetarian, Restaurant & Tea House",https://www.tripadvisor.com/Restaurant_Review-g293925-d17122565-Reviews-Shamballa_Vegetarian_Restaurant_Tea_House-Ho_Chi_Minh_City.html,540,4.9,$$ - $$$,False,,,https://dynamic-media-cdn.tripadvisor.com/media/photo-o/17/ba/11/69/petite-lotus-pond-and.jpg,10.76718,106.69655,False,False,"['Asian', 'Vietnamese', 'Healthy', 'Soups']"
143,21272060,Dalcheeni HCMC,https://www.tripadvisor.com/Restaurant_Review-g293925-d21272060-Reviews-Dalcheeni_HCMC-Ho_Chi_Minh_City.html,240,4.7,$$ - $$$,False,http://dalcheenivn.com/,,https://dynamic-media-cdn.tripadvisor.com/media/photo-o/1c/ad/ec/91/dalcheeni-hcm-2a-ngo.jpg,10.780498,106.70711,False,False,['Indian']
144,1832810,Trois Gourmands,https://www.tripadvisor.com/Restaurant_Review-g293925-d1832810-Reviews-Trois_Gourmands-Ho_Chi_Minh_City.html,760,4.6,$$$$,False,http://3gourmandsaigon.com.vn/menu/,,https://dynamic-media-cdn.tripadvisor.com/media/photo-o/06/c9/31/76/trois-gourmands.jpg,10.806137,106.7407,False,False,"['French', 'European']"
145,9706209,Com Tam Ba Ghien,https://www.tripadvisor.com/Restaurant_Review-g293925-d9706209-Reviews-Com_Tam_Ba_Ghien-Ho_Chi_Minh_City.html,123,4.5,$,False,,,https://dynamic-media-cdn.tripadvisor.com/media/photo-o/0b/e9/ab/5b/com-tam-ba-ghien.jpg,10.794456,106.66936,False,False,"['Barbecue', 'Asian', 'Vietnamese']"
146,26447081,House of Merlin - Cocktail Bar & Eatery,https://www.tripadvisor.com/Restaurant_Review-g293925-d26447081-Reviews-House_of_Merlin_Cocktail_Bar_Eatery-Ho_Chi_Minh_City.html,78,5.0,$$ - $$$,False,https://bit.ly/MerlinMenu,,https://dynamic-media-cdn.tripadvisor.com/media/photo-o/2d/eb/60/df/house-of-merlin-s-vibe.jpg,10.778287,106.69866,False,False,"['Bar', 'Asian', 'Pub', 'Vietnamese', 'Diner', 'Wine Bar', 'Dining bars']"
147,15190124,Mrsimple Steakhouse,https://www.tripadvisor.com/Restaurant_Review-g293925-d15190124-Reviews-Mrsimple_Steakhouse-Ho_Chi_Minh_City.html,75,4.6,$,True,http://www.mrsimplesteakhouse.com/menu,,https://dynamic-media-cdn.tripadvisor.com/media/photo-o/2f/84/90/0a/where-love-tastes-bette.jpg,10.78712,106.6922,False,True,"['Italian', 'French', 'Steakhouse', 'Fusion']"
148,8530915,Stoker Woodfired Grill & Bar,https://www.tripadvisor.com/Restaurant_Review-g293925-d8530915-Reviews-Stoker_Woodfired_Grill_Bar-Ho_Chi_Minh_City.html,287,4.4,$$$$,False,https://qr.me-qr.com/OXIrMMXV,,https://dynamic-media-cdn.tripadvisor.com/media/photo-o/08/b0/42/cd/stoker-woodfired-grill.jpg,10.775434,106.70505,False,False,"['Steakhouse', 'Bar', 'Grill']"
149,26312250,B40,https://www.tripadvisor.com/Restaurant_Review-g293925-d26312250-Reviews-B40-Ho_Chi_Minh_City.html,21,5.0,$$ - $$$,False,,,https://dynamic-media-cdn.tripadvisor.com/media/photo-o/2d/25/5a/fd/b40-foods.jpg,10.767239,106.69485,False,False,"['Asian', 'Fusion']"
150,24053236,Madame Lam - Vietnamese Contemporary Cuisine,https://www.tripadvisor.com/Restaurant_Review-g293925-d24053236-Reviews-Madame_Lam_Vietnamese_Contemporary_Cuisine-Ho_Chi_Minh_City.html,77,4.8,$$$$,False,http://mamamia.vn/our-projects/madame-lam/,,https://dynamic-media-cdn.tripadvisor.com/media/photo-o/23/67/72/32/chef-cu-ng.jpg,10.803042,106.73899,False,False,"['Asian', 'Vietnamese', 'Diner', 'Healthy']"
151,4475447,Market 39,https://www.tripadvisor.com/Restaurant_Review-g293925-d4475447-Reviews-Market_39-Ho_Chi_Minh_City.html,267,4.5,$$ - $$$,False,https://drive.google.com/drive/folders/1rYlsUZthz_p-saAttdlwJ7Q7OIXnevLo?usp=sharing,,https://dynamic-media-cdn.tripadvisor.com/media/photo-o/2f/71/ab/57/seafood-buffet-at-market.jpg,10.780603,106.70059,False,False,"['International', 'Asian', 'Vietnamese']"
152,28653584,Benthanh Princess - Luxurious Dining Cruise,https://www.tripadvisor.com/Restaurant_Review-g293925-d28653584-Reviews-Benthanh_Princess_Luxurious_Dining_Cruise-Ho_Chi_Minh_City.html,140,5.0,$$ - $$$,False,https://www.benthanhprincess.com.vn/en/menu/,,https://dynamic-media-cdn.tripadvisor.com/media/photo-o/2f/4f/05/ee/lightning-system-on-benthanh.jpg,10.765086,106.70742,False,False,"['Asian', 'Fusion']"
153,6650475,El Gaucho | Hai Ba Trung,https://www.tripadvisor.com/Restaurant_Review-g293925-d6650475-Reviews-El_Gaucho_Hai_Ba_Trung-Ho_Chi_Minh_City.html,756,4.4,$$$$,False,https://vn.elgaucho.asia/menu/all-day,,https://dynamic-media-cdn.tripadvisor.com/media/photo-o/03/e5/83/7c/el-gaucho-argentinian.jpg,10.778032,106.70351,False,False,[]
154,1008341,The Refinery,https://www.tripadvisor.com/Restaurant_Review-g293925-d1008341-Reviews-The_Refinery-Ho_Chi_Minh_City.html,878,4.1,$$ - $$$,False,https://therefinerysaigon.com/menu/,,https://dynamic-media-cdn.tripadvisor.com/media/photo-o/2b/c7/43/95/our-chef-marries-tender.jpg,10.778305,106.70362,False,False,"['French', 'European']"
155,6360239,Propaganda Bistro,https://www.tripadvisor.com/Restaurant_Review-g293925-d6360239-Reviews-Propaganda_Bistro-Ho_Chi_Minh_City.html,2325,4.4,$$ - $$$,False,http://www.propagandabistros.com/menu/,,https://dynamic-media-cdn.tripadvisor.com/media/photo-o/07/68/0b/64/propaganda-restaurant.jpg,10.778796,106.69816,False,False,"['Asian', 'Vietnamese', 'Healthy']"
156,25323330,SENS - Dine & Wine,https://www.tripadvisor.com/Restaurant_Review-g293925-d25323330-Reviews-SENS_Dine_Wine-Ho_Chi_Minh_City.html,123,4.9,$$$$,False,https://sens-dining.com/menu/,,https://dynamic-media-cdn.tripadvisor.com/media/photo-o/2b/81/3b/e8/our-logo.jpg,10.771686,106.70399,False,False,['French']
157,13417229,Pizza 4P's Hai Ba Trung,https://www.tripadvisor.com/Restaurant_Review-g293925-d13417229-Reviews-Pizza_4P_s_Hai_Ba_Trung-Ho_Chi_Minh_City.html,132,4.6,$$ - $$$,False,https://pizza4ps.com/menu/,,https://dynamic-media-cdn.tripadvisor.com/media/photo-o/11/d6/d2/51/getlstd-property-photo.jpg,10.783149,106.69715,False,False,"['Italian', 'Pizza', 'European']"
158,26794670,Phở Việt Nam - Phạm Hồng Thái,https://www.tripadvisor.com/Restaurant_Review-g293925-d26794670-Reviews-Ph_Vi_t_Nam_Ph_m_H_ng_Thai-Ho_Chi_Minh_City.html,200,4.8,$,True,http://phovietnam.vn/,,https://dynamic-media-cdn.tripadvisor.com/media/photo-o/2a/af/3e/68/ph-d-c-bi-t.jpg,10.771386,106.69614,False,True,"['Vietnamese', 'Soups', 'Indigenous']"
159,1122867,Carpaccio - Italian Restaurant,https://www.tripadvisor.com/Restaurant_Review-g293925-d1122867-Reviews-Carpaccio_Italian_Restaurant-Ho_Chi_Minh_City.html,471,4.3,$$ - $$$,False,,,https://dynamic-media-cdn.tripadvisor.com/media/photo-o/2a/bb/c1/1f/carpaccio-s-space.jpg,10.77711,106.70449,False,False,"['Italian', 'Pizza', 'European']"
160,3330826,Dong Pho,https://www.tripadvisor.com/Restaurant_Review-g293925-d3330826-Reviews-Dong_Pho-Ho_Chi_Minh_City.html,231,4.3,$$ - $$$,False,http://www.dongphorestaurant.com/menu.html,,https://dynamic-media-cdn.tripadvisor.com/media/photo-o/0e/fd/32/68/photo0jpg.jpg,10.776391,106.68746,False,False,"['Asian', 'Vietnamese']"
161,6943007,Nossa - Italian Steakhouse,https://www.tripadvisor.com/Restaurant_Review-g293925-d6943007-Reviews-Nossa_Italian_Steakhouse-Ho_Chi_Minh_City.html,305,4.6,$$ - $$$,False,,,https://dynamic-media-cdn.tripadvisor.com/media/photo-o/2a/6d/53/53/italian-food-grilled.jpg,10.771097,106.695724,False,False,"['Italian', 'Steakhouse', 'Grill']"
162,33033539,Hai's Restaurant - Vietnamese Cuisine & Vegan Food,https://www.tripadvisor.com/Restaurant_Review-g293925-d33033539-Reviews-Hai_s_Restaurant_Vietnamese_Cuisine_Vegan_Food-Ho_Chi_Minh_City.html,102,5.0,$,False,https://haisrestaurant.com/our-menus/alarcart-menu/,,https://dynamic-media-cdn.tripadvisor.com/media/photo-o/2f/a6/a5/dc/vietnamese-cuisine.jpg,10.772212,106.69474,False,False,['Vietnamese']
163,14090367,El Camino Taqueria - District 2,https://www.tripadvisor.com/Restaurant_Review-g293925-d14090367-Reviews-El_Camino_Taqueria_District_2-Ho_Chi_Minh_City.html,153,4.8,$$ - $$$,False,,,https://dynamic-media-cdn.tripadvisor.com/media/photo-o/1b/73/53/c8/el-camino-taqueria.jpg,10.802495,106.73493,False,False,"['Mexican', 'Asian', 'Korean', 'Fusion']"
164,2351312,Ciao Bella District 1,https://www.tripadvisor.com/Restaurant_Review-g293925-d2351312-Reviews-Ciao_Bella_District_1-Ho_Chi_Minh_City.html,1948,4.4,$$ - $$$,False,http://www.ciaobellavietnam.com/menu.html,,https://dynamic-media-cdn.tripadvisor.com/media/photo-o/0a/ea/bc/c8/ben-trong-nha-hang-ciao.jpg,10.776415,106.704994,False,False,"['Italian', 'Pizza', 'European']"
165,26770553,Yuzu Omakase Vietnam,https://www.tripadvisor.com/Restaurant_Review-g293925-d26770553-Reviews-Yuzu_Omakase_Vietnam-Ho_Chi_Minh_City.html,43,4.8,$$$$,False,https://yuzuomakase.com/vn/overview/,,https://dynamic-media-cdn.tripadvisor.com/media/photo-o/2e/a2/3a/7b/bold-flavors-delicately.jpg,10.774356,106.69705,False,True,"['Japanese', 'Asian', 'Japanese Fusion']"
166,21165605,Chez Gilbert Saigon,https://www.tripadvisor.com/Restaurant_Review-g293925-d21165605-Reviews-Chez_Gilbert_Saigon-Ho_Chi_Minh_City.html,61,5.0,$,False,https://order.ipos.vn/?pos_parent=BRAND-SRIN%25E2%2580%258B&fbclid=IwZXh0bgNhZW0CMTEAAR2BS1GYek_GmpM14ruhKWJni7w-jv7Ybl5wxW9opabAhFX02TY6mWrqcic_aem_AQxdjluQNyZ7O9dozGHtLGx7SzqjyJUW1yG8vM09L0sLVugz0KVIXvC7Mxzj9Bxt_LMmPz0HmXtgXGG1EQ6hKyY3,,https://dynamic-media-cdn.tripadvisor.com/media/photo-o/2d/f9/3f/d9/perfect-weekend-with.jpg,10.769801,106.69723,False,False,"['French', 'International', 'Deli', 'Vietnamese', 'Wine Bar']"
167,16850048,Hello SaiGon Vietnamese Fusion Food,https://www.tripadvisor.com/Restaurant_Review-g293925-d16850048-Reviews-Hello_SaiGon_Vietnamese_Fusion_Food-Ho_Chi_Minh_City.html,188,4.8,$,False,,,https://dynamic-media-cdn.tripadvisor.com/media/photo-o/1a/87/13/a5/vietnamese-cuisine.jpg,10.768644,106.69384,False,False,"['Cafe', 'Vietnamese']"
168,1308585,Square One,https://www.tripadvisor.com/Restaurant_Review-g293925-d1308585-Reviews-Square_One-Ho_Chi_Minh_City.html,248,4.4,$$$$,False,https://www.saigon.park.hyattrestaurants.com/uploads/1/1/2/9/112964589/park-hyatt-saigon-square-one-a-la-carte-2025.pdf,,https://dynamic-media-cdn.tripadvisor.com/media/photo-o/12/5f/1c/21/square-one-french-kitchen.jpg,10.777182,106.70351,False,False,"['French', 'Contemporary', 'Vietnamese']"
169,6501886,Sushi Hokkaido Sachi,https://www.tripadvisor.com/Restaurant_Review-g293925-d6501886-Reviews-Sushi_Hokkaido_Sachi-Ho_Chi_Minh_City.html,480,4.3,$$ - $$$,False,,,https://dynamic-media-cdn.tripadvisor.com/media/photo-o/06/26/58/b1/sushi-hokkaido-sachi.jpg,10.776411,106.70493,False,False,"['Japanese', 'Seafood', 'Sushi', 'Asian']"
170,1123421,Xu Restaurant Lounge,https://www.tripadvisor.com/Restaurant_Review-g293925-d1123421-Reviews-Xu_Restaurant_Lounge-Ho_Chi_Minh_City.html,1098,4.4,$$$$,False,,,https://dynamic-media-cdn.tripadvisor.com/media/photo-o/12/ac/54/63/xu-saigon-dumplings.jpg,10.776938,106.70439,False,False,"['Bar', 'Asian', 'Vietnamese', 'Wine Bar']"
171,1122082,Au Lac Do Brazil Pasteur,https://www.tripadvisor.com/Restaurant_Review-g293925-d1122082-Reviews-Au_Lac_Do_Brazil_Pasteur-Ho_Chi_Minh_City.html,214,4.1,$$ - $$$,False,http://bit.ly/ALDB-menu,,https://dynamic-media-cdn.tripadvisor.com/media/photo-o/2a/a9/15/f3/au-lac-do-brazil-facade.jpg,10.785322,106.6908,False,False,"['Steakhouse', 'Brazilian', 'Latin', 'Barbecue']"
172,7886825,Dim Tu Tac,https://www.tripadvisor.com/Restaurant_Review-g293925-d7886825-Reviews-Dim_Tu_Tac-Ho_Chi_Minh_City.html,120,4.1,$$ - $$$,False,,,https://dynamic-media-cdn.tripadvisor.com/media/photo-o/08/92/f4/86/fantastic-fresh-authentic.jpg,10.767215,106.70746,False,False,"['Chinese', 'Asian', 'Fusion', 'Cantonese', 'NorthEastern Chinese', 'Hong Kong']"
173,6023325,Saigon Grill,https://www.tripadvisor.com/Restaurant_Review-g293925-d6023325-Reviews-Saigon_Grill-Ho_Chi_Minh_City.html,156,4.1,$$ - $$$,False,,,https://dynamic-media-cdn.tripadvisor.com/media/photo-o/1a/74/a8/b5/our-view.jpg,10.776922,106.69924,False,False,"['Barbecue', 'Asian', 'Grill', 'Vietnamese']"
174,28052954,Hải Sản Hoàng Gia Cn 46 Phạm Văn Nghị,https://www.tripadvisor.com/Restaurant_Review-g293925-d28052954-Reviews-H_i_S_n_Hoang_Gia_Cn_46_Ph_m_Van_Ngh-Ho_Chi_Minh_City.html,11,4.9,$$$$,True,https://haisanhoanggia.com/pages/menu-che-bien,,https://dynamic-media-cdn.tripadvisor.com/media/photo-o/2d/2a/22/9f/king-crab.jpg,10.725457,106.706924,False,False,"['Seafood', 'Sushi', 'Vietnamese', 'Indigenous']"
175,26681281,Baieta Saigon,https://www.tripadvisor.com/Restaurant_Review-g293925-d26681281-Reviews-Baieta_Saigon-Ho_Chi_Minh_City.html,3,4.3,$$ - $$$,True,,,https://dynamic-media-cdn.tripadvisor.com/media/photo-o/2f/d7/3a/48/sunset-view.jpg,10.802878,106.72722,False,True,"['French', 'Pizza', 'Mediterranean']"
176,15190124,Mrsimple Steakhouse,https://www.tripadvisor.com/Restaurant_Review-g293925-d15190124-Reviews-Mrsimple_Steakhouse-Ho_Chi_Minh_City.html,75,4.6,$,True,http://www.mrsimplesteakhouse.com/menu,,https://dynamic-media-cdn.tripadvisor.com/media/photo-o/2f/84/90/0a/where-love-tastes-bette.jpg,10.78712,106.6922,False,True,"['Italian', 'French', 'Steakhouse', 'Fusion']"
177,25170533,Nhà Hàng Chay An & Cafe - Phạm Thái Bường,https://www.tripadvisor.com/Restaurant_Review-g293925-d25170533-Reviews-Nha_Hang_Chay_An_Cafe_Ph_m_Thai_Bu_ng-Ho_Chi_Minh_City.html,13,5.0,$$ - $$$,False,https://anveggie.vn/pages/menu,,https://dynamic-media-cdn.tripadvisor.com/media/photo-o/2f/ca/02/00/an-vegetarian-restaurant.jpg,10.727579,106.71247,False,False,"['Cafe', 'European', 'Asian', 'Deli', 'Healthy']"
178,15239535,Shanti Indian Cuisine,https://www.tripadvisor.com/Restaurant_Review-g293925-d15239535-Reviews-Shanti_Indian_Cuisine-Ho_Chi_Minh_City.html,324,4.8,$,False,,,https://dynamic-media-cdn.tripadvisor.com/media/photo-o/1a/61/96/5f/img-20191224-183120-largejpg.jpg,10.767107,106.689384,False,False,"['Indian', 'Asian']"
179,26431965,Hải Sản Hoàng Gia,https://www.tripadvisor.com/Restaurant_Review-g293925-d26431965-Reviews-H_i_S_n_Hoang_Gia-Ho_Chi_Minh_City.html,27,4.8,$$ - $$$,False,https://haisanhoanggia.com/pages/menu-che-bien,,https://dynamic-media-cdn.tripadvisor.com/media/photo-o/29/dd/c2/d0/king-crab-cua-hoang-d.jpg,10.729325,106.70834,False,False,"['Seafood', 'Asian', 'Vietnamese', 'Wine Bar', 'Indigenous']"
180,1188805,Huong Lai Restaurant,https://www.tripadvisor.com/Restaurant_Review-g293925-d1188805-Reviews-Huong_Lai_Restaurant-Ho_Chi_Minh_City.html,1020,4.5,$$ - $$$,False,http://www.huonglai2001saigon.com/menu.html,,https://dynamic-media-cdn.tripadvisor.com/media/photo-o/10/10/a2/20/photo0jpg.jpg,10.777221,106.70027,False,False,"['Asian', 'Vietnamese', 'Healthy']"
181,1122894,Skewers,https://www.tripadvisor.com/Restaurant_Review-g293925-d1122894-Reviews-Skewers-Ho_Chi_Minh_City.html,447,4.3,$$ - $$$,False,http://www.shgsaigon.com/skewers.html,,https://dynamic-media-cdn.tripadvisor.com/media/photo-o/14/9b/44/56/first-floor-terrace.jpg,10.779012,106.70475,False,False,"['Mediterranean', 'European', 'Greek', 'Soups']"
182,26794670,Phở Việt Nam - Phạm Hồng Thái,https://www.tripadvisor.com/Restaurant_Review-g293925-d26794670-Reviews-Ph_Vi_t_Nam_Ph_m_H_ng_Thai-Ho_Chi_Minh_City.html,200,4.8,$,True,http://phovietnam.vn/,,https://dynamic-media-cdn.tripadvisor.com/media/photo-o/2a/af/3e/68/ph-d-c-bi-t.jpg,10.771386,106.69614,False,True,"['Vietnamese', 'Soups', 'Indigenous']"
183,12820385,El Gaucho | Phu My Hung,https://www.tripadvisor.com/Restaurant_Review-g293925-d12820385-Reviews-El_Gaucho_Phu_My_Hung-Ho_Chi_Minh_City.html,63,4.7,$$$$,False,https://vn.elgaucho.asia/menu/all-day,,https://dynamic-media-cdn.tripadvisor.com/media/photo-o/11/a7/cf/89/el-gaucho-argentinian.jpg,10.727908,106.71866,False,False,"['Steakhouse', 'Argentinean']"
184,20086523,Gyu Shige - Ngưu Phồn,https://www.tripadvisor.com/Restaurant_Review-g293925-d20086523-Reviews-Gyu_Shige_Nguu_Ph_n-Ho_Chi_Minh_City.html,66,4.8,$$ - $$$,False,,,https://dynamic-media-cdn.tripadvisor.com/media/photo-o/2a/a3/2a/60/caption.jpg,10.776424,106.70475,False,False,"['Japanese', 'Barbecue', 'Asian', 'Deli', 'Grill']"
185,33073949,Cơm Niêu Cku Linh,https://www.tripadvisor.com/Restaurant_Review-g293925-d33073949-Reviews-Com_Nieu_Cku_Linh-Ho_Chi_Minh_City.html,29,5.0,,False,https://comnieuckulinh.com/com-nieu-cku-linh/,,https://dynamic-media-cdn.tripadvisor.com/media/photo-o/2f/9f/f3/5c/gi-a-long-sai-gon-hoa.jpg,10.784656,106.697586,False,False,['Vietnamese']
186,7066029,The Racha Room Restaurant,https://www.tripadvisor.com/Restaurant_Review-g293925-d7066029-Reviews-The_Racha_Room_Restaurant-Ho_Chi_Minh_City.html,455,4.5,$$ - $$$,False,https://www.theracharoom.com/,,https://dynamic-media-cdn.tripadvisor.com/media/photo-o/2b/5e/eb/d4/the-racha-room.jpg,10.77832,106.705124,False,False,"['Bar', 'Asian', 'Thai', 'Fusion']"
187,11885108,The Alley Cocktail Bar & Kitchen Restaurant,https://www.tripadvisor.com/Restaurant_Review-g293925-d11885108-Reviews-The_Alley_Cocktail_Bar_Kitchen_Restaurant-Ho_Chi_Minh_City.html,102,4.8,$$ - $$$,False,,,https://dynamic-media-cdn.tripadvisor.com/media/photo-o/14/60/ab/ac/img-20180829-213455-largejpg.jpg,10.77466,106.70081,False,False,"['Bar', 'International', 'Vietnamese', 'Diner', 'Wine Bar']"
188,18970750,Som Tum Thai - Saigon Centre,https://www.tripadvisor.com/Restaurant_Review-g293925-d18970750-Reviews-Som_Tum_Thai_Saigon_Centre-Ho_Chi_Minh_City.html,209,4.1,$,False,,,https://dynamic-media-cdn.tripadvisor.com/media/photo-o/19/42/79/cc/getlstd-property-photo.jpg,10.773169,106.70101,False,False,"['International', 'Asian', 'Thai', 'Healthy']"
189,25241956,S79 - Japanese Teppanyaki,https://www.tripadvisor.com/Restaurant_Review-g293925-d25241956-Reviews-S79_Japanese_Teppanyaki-Ho_Chi_Minh_City.html,27,5.0,$$$$,False,,,https://dynamic-media-cdn.tripadvisor.com/media/photo-o/28/b0/e9/90/best-view-above-saigon.jpg,10.794457,106.72154,False,False,"['Japanese', 'Kyoto cuisine', 'Japanese Fusion']"
190,19647189,Ussina Aging Beef & Bar,https://www.tripadvisor.com/Restaurant_Review-g293925-d19647189-Reviews-Ussina_Aging_Beef_Bar-Ho_Chi_Minh_City.html,99,4.6,$$$$,False,https://ussinavietnam.vn/en/menu-landmark-81/?utm_campaign=TrA&utm_source=TrA&utm_medium=TrA,,https://dynamic-media-cdn.tripadvisor.com/media/photo-o/1a/46/18/13/ussina-s-view.jpg,10.794832,106.7222,False,False,"['Japanese', 'Steakhouse', 'Asian', 'Fusion', 'Healthy']"
191,15609350,Quan Bui Central,https://www.tripadvisor.com/Restaurant_Review-g293925-d15609350-Reviews-Quan_Bui_Central-Ho_Chi_Minh_City.html,81,4.5,$$ - $$$,False,https://quan-bui.com/3d-flip-book/quan-bui-menu/,,https://dynamic-media-cdn.tripadvisor.com/media/photo-o/28/cd/ab/c3/3l7ugeq-quan-b-i-central.jpg,10.784955,106.70298,False,False,['Vietnamese']
192,11946866,Belgo Belgian Craft Beer Brewery - Da Kao,https://www.tripadvisor.com/Restaurant_Review-g293925-d11946866-Reviews-Belgo_Belgian_Craft_Beer_Brewery_Da_Kao-Ho_Chi_Minh_City.html,232,4.6,$$ - $$$,False,https://www.belgo.com.vn/our-menu,,https://dynamic-media-cdn.tripadvisor.com/media/photo-o/10/cd/2a/97/a-master-piece-of-art.jpg,10.788754,106.69805,False,False,"['Belgian', 'Bar', 'Pub', 'Gastropub', 'Beer restaurants']"
193,26794819,PHỞ VIỆT NAM - Bùi Bằng Đoàn,https://www.tripadvisor.com/Restaurant_Review-g293925-d26794819-Reviews-PH_VI_T_NAM_Bui_B_ng_Doan-Ho_Chi_Minh_City.html,11,4.9,$,True,,,https://dynamic-media-cdn.tripadvisor.com/media/photo-o/2b/b9/1c/8c/raw-beef-pho.jpg,10.730942,106.70864,False,True,"['Vietnamese', 'Indigenous']"
194,1592499,La Cuisine,https://www.tripadvisor.com/Restaurant_Review-g293925-d1592499-Reviews-La_Cuisine-Ho_Chi_Minh_City.html,355,4.4,$$$$,False,,,https://dynamic-media-cdn.tripadvisor.com/media/photo-o/08/46/fd/53/la-cuisine.jpg,10.77882,106.70316,False,False,"['French', 'Mediterranean', 'European', 'Gastropub']"
195,12800212,CCCP Saigon Cafe & Restaurant,https://www.tripadvisor.com/Restaurant_Review-g293925-d12800212-Reviews-CCCP_Saigon_Cafe_Restaurant-Ho_Chi_Minh_City.html,25,4.4,$$ - $$$,False,,,https://dynamic-media-cdn.tripadvisor.com/media/photo-o/2e/61/c6/74/caption.jpg,10.791686,106.70026,False,False,"['Healthy', 'Russian', 'Eastern European', 'Ukrainian']"
196,13089903,SH Garden,https://www.tripadvisor.com/Restaurant_Review-g293925-d13089903-Reviews-SH_Garden-Ho_Chi_Minh_City.html,159,4.3,$$ - $$$,False,http://shgarden.com.vn/menu,,https://dynamic-media-cdn.tripadvisor.com/media/photo-o/15/eb/76/c2/photo6jpg.jpg,10.77427,106.70508,False,False,"['Asian', 'Vietnamese']"
197,28471196,Dogalbi Saigon,https://www.tripadvisor.com/Restaurant_Review-g293925-d28471196-Reviews-Dogalbi_Saigon-Ho_Chi_Minh_City.html,36,5.0,,False,,,https://dynamic-media-cdn.tripadvisor.com/media/photo-o/2d/f6/b5/d9/the-grilled-black-pork.jpg,10.779846,106.7029,False,False,"['Asian', 'Grill']"
198,4227858,5ku Station,https://www.tripadvisor.com/Restaurant_Review-g293925-d4227858-Reviews-5ku_Station-Ho_Chi_Minh_City.html,395,4.1,$,False,,,https://dynamic-media-cdn.tripadvisor.com/media/photo-o/0c/e6/c5/81/set-up.jpg,10.77949,106.7043,False,False,"['Barbecue', 'Asian', 'Vietnamese']"
199,26794819,PHỞ VIỆT NAM - Bùi Bằng Đoàn,https://www.tripadvisor.com/Restaurant_Review-g293925-d26794819-Reviews-PH_VI_T_NAM_Bui_B_ng_Doan-Ho_Chi_Minh_City.html,11,4.9,$,False,,,https://dynamic-media-cdn.tripadvisor.com/media/photo-o/2b/b9/1c/8c/raw-beef-pho.jpg,10.730942,106.70864,False,True,"['Vietnamese', 'Indigenous']"
200,25209955,5 Senses,https://www.tripadvisor.com/Restaurant_Review-g293925-d25209955-Reviews-5_Senses-Ho_Chi_Minh_City.html,27,4.7,$$$$,False,https://www.5senses.asia/_files/ugd/c0ace1_30dc3317febd40f78e981c8dd118a0ec.pdf,,https://dynamic-media-cdn.tripadvisor.com/media/photo-o/27/a3/6e/3e/shrimps.jpg,10.764273,106.68297,False,True,"['Japanese', 'Bar', 'Sushi', 'Asian', 'Contemporary', 'Japanese Fusion']"
201,32594710,Link Bistro Cafe & Restaurant,https://www.tripadvisor.com/Restaurant_Review-g293925-d32594710-Reviews-Link_Bistro_Cafe_Restaurant-Ho_Chi_Minh_City.html,53,4.9,$$ - $$$,False,,,https://dynamic-media-cdn.tripadvisor.com/media/photo-o/2e/4d/36/51/dinner-at-link-bistro.jpg,10.772056,106.69498,False,False,"['Asian', 'Fusion', 'Vietnamese']"
202,12369414,Nha Tu Restaurant,https://www.tripadvisor.com/Restaurant_Review-g293925-d12369414-Reviews-Nha_Tu_Restaurant-Ho_Chi_Minh_City.html,37,4.8,$$ - $$$,False,,,https://dynamic-media-cdn.tripadvisor.com/media/photo-o/10/cc/fd/5c/getlstd-property-photo.jpg,10.775165,106.689545,False,False,['Vietnamese']
203,32724138,Vi Sai Gon Restaurant & Cafe,https://www.tripadvisor.com/Restaurant_Review-g293925-d32724138-Reviews-Vi_Sai_Gon_Restaurant_Cafe-Ho_Chi_Minh_City.html,12,4.9,$,False,,,https://dynamic-media-cdn.tripadvisor.com/media/photo-o/2e/99/26/71/vi-sai-gon.jpg,10.776936,106.68853,False,False,['Vietnamese']
204,26648327,Jin Din Rou - Saigon Centre HCM,https://www.tripadvisor.com/Restaurant_Review-g293925-d26648327-Reviews-Jin_Din_Rou_Saigon_Centre_HCM-Ho_Chi_Minh_City.html,157,4.9,$$ - $$$,False,,,https://dynamic-media-cdn.tripadvisor.com/media/photo-o/2e/52/34/ec/caption.jpg,10.772939,106.700485,False,False,"['Chinese', 'Asian']"
205,2629212,Beirut - Mediterranean Kitchen & Lounge,https://www.tripadvisor.com/Restaurant_Review-g293925-d2629212-Reviews-Beirut_Mediterranean_Kitchen_Lounge-Ho_Chi_Minh_City.html,358,4.2,$$ - $$$,False,http://beirut.com.vn/#at-menubeirut,,https://dynamic-media-cdn.tripadvisor.com/media/photo-o/15/24/63/14/beirut-saigon-authentic.jpg,10.778103,106.70388,False,False,"['Lebanese', 'International', 'Mediterranean', 'Middle Eastern']"
206,12910177,Marcel - Calmette,https://www.tripadvisor.com/Restaurant_Review-g293925-d12910177-Reviews-Marcel_Calmette-Ho_Chi_Minh_City.html,614,4.8,$$ - $$$,False,,,https://dynamic-media-cdn.tripadvisor.com/media/photo-o/2e/c5/92/63/sharing-is-caring-come.jpg,10.769067,106.69852,False,False,['American']
207,13417220,Pizza 4P's Saigon Centre,https://www.tripadvisor.com/Restaurant_Review-g293925-d13417220-Reviews-Pizza_4P_s_Saigon_Centre-Ho_Chi_Minh_City.html,130,4.4,$$ - $$$,False,https://pizza4ps.com/menu/,,https://dynamic-media-cdn.tripadvisor.com/media/photo-o/11/d6/ce/e0/getlstd-property-photo.jpg,10.773336,106.7005,False,False,"['Italian', 'Pizza', 'Japanese Fusion']"
208,13614956,D'Maris Premier Buffet Phu My Hung,https://www.tripadvisor.com/Restaurant_Review-g293925-d13614956-Reviews-D_Maris_Premier_Buffet_Phu_My_Hung-Ho_Chi_Minh_City.html,168,4.6,$$ - $$$,False,,,https://dynamic-media-cdn.tripadvisor.com/media/photo-o/13/0e/f9/0d/d-maris-premier-buffet.jpg,10.741189,106.70145,False,False,"['Chinese', 'Japanese', 'Southwestern', 'Asian', 'Korean', 'Vietnamese']"
209,12180159,Cocotte,https://www.tripadvisor.com/Restaurant_Review-g293925-d12180159-Reviews-Cocotte-Ho_Chi_Minh_City.html,264,4.4,$$ - $$$,True,https://www.cocotte.asia/menu-1,,https://dynamic-media-cdn.tripadvisor.com/media/photo-o/2a/5e/95/0c/cocotte-french-bistro.jpg,10.773821,106.698,False,True,"['French', 'European', 'Wine Bar']"
210,15190124,Mrsimple Steakhouse,https://www.tripadvisor.com/Restaurant_Review-g293925-d15190124-Reviews-Mrsimple_Steakhouse-Ho_Chi_Minh_City.html,75,4.6,$,True,http://www.mrsimplesteakhouse.com/menu,,https://dynamic-media-cdn.tripadvisor.com/media/photo-o/2f/84/90/0a/where-love-tastes-bette.jpg,10.78712,106.6922,False,True,"['Italian', 'French', 'Steakhouse', 'Fusion']"
211,26681281,Baieta Saigon,https://www.tripadvisor.com/Restaurant_Review-g293925-d26681281-Reviews-Baieta_Saigon-Ho_Chi_Minh_City.html,3,4.3,$$ - $$$,True,,,https://dynamic-media-cdn.tripadvisor.com/media/photo-o/2f/d7/3a/48/sunset-view.jpg,10.802878,106.72722,False,True,"['French', 'Pizza', 'Mediterranean']"
212,17623254,Soul Ben Thanh Restaurant & Bar,https://www.tripadvisor.com/Restaurant_Review-g293925-d17623254-Reviews-Soul_Ben_Thanh_Restaurant_Bar-Ho_Chi_Minh_City.html,750,4.5,$$ - $$$,False,,,https://dynamic-media-cdn.tripadvisor.com/media/photo-o/2c/c0/ef/18/soul-ben-thanh-by-night.jpg,10.773237,106.697464,False,False,"['Bar', 'Seafood', 'Asian', 'Vietnamese', 'Healthy']"
213,24186056,Eddie's D1 New York Diner & Deli,https://www.tripadvisor.com/Restaurant_Review-g293925-d24186056-Reviews-Eddie_s_D1_New_York_Diner_Deli-Ho_Chi_Minh_City.html,74,4.6,$$ - $$$,False,,,https://dynamic-media-cdn.tripadvisor.com/media/photo-o/28/db/af/ed/authentic-diner-vibes.jpg,10.82293,106.62975,False,False,"['American', 'Deli', 'Grill', 'Diner']"
214,7134134,Elisa Floating Restaurant,https://www.tripadvisor.com/Restaurant_Review-g293925-d7134134-Reviews-Elisa_Floating_Restaurant-Ho_Chi_Minh_City.html,134,4.0,$$$$,False,,,https://dynamic-media-cdn.tripadvisor.com/media/photo-o/16/e3/cc/14/elisa-floating-restaurant.jpg,10.768134,106.70757,False,False,"['Seafood', 'Asian', 'Vietnamese']"
215,8603404,Banh Mi Hoa Ma,https://www.tripadvisor.com/Restaurant_Review-g293925-d8603404-Reviews-Banh_Mi_Hoa_Ma-Ho_Chi_Minh_City.html,135,4.6,$,False,,,https://dynamic-media-cdn.tripadvisor.com/media/photo-o/11/fc/52/8a/photo0jpg.jpg,10.770194,106.68171,False,False,"['Asian', 'Vietnamese']"
216,11737543,Di Mai Ben Thanh - Vietnamese Restaurant,https://www.tripadvisor.com/Restaurant_Review-g293925-d11737543-Reviews-Di_Mai_Ben_Thanh_Vietnamese_Restaurant-Ho_Chi_Minh_City.html,445,4.4,$$ - $$$,False,https://nhahangdimai.com/wp-content/uploads/2019/12/Di-Mai-Menu-17-12-2019.pdf,,https://dynamic-media-cdn.tripadvisor.com/media/photo-o/2b/9c/16/0f/our-logo.jpg,10.768681,106.697334,False,False,"['Asian', 'Vietnamese']"
217,26794670,Phở Việt Nam - Phạm Hồng Thái,https://www.tripadvisor.com/Restaurant_Review-g293925-d26794670-Reviews-Ph_Vi_t_Nam_Ph_m_H_ng_Thai-Ho_Chi_Minh_City.html,200,4.8,$,True,http://phovietnam.vn/,,https://dynamic-media-cdn.tripadvisor.com/media/photo-o/2a/af/3e/68/ph-d-c-bi-t.jpg,10.771386,106.69614,False,True,"['Vietnamese', 'Soups', 'Indigenous']"
218,27094166,Blanc de Blancs,https://www.tripadvisor.com/Restaurant_Review-g293925-d27094166-Reviews-Blanc_de_Blancs-Ho_Chi_Minh_City.html,45,4.9,$,False,https://linktr.ee/blancdeblancsnguyenhue,,https://dynamic-media-cdn.tripadvisor.com/media/photo-o/2f/65/78/27/first-floor-sip-in-eden.jpg,10.773281,106.70403,False,False,"['French', 'Bar', 'Fusion', 'Wine Bar']"
219,19390759,Stoker Woodfired Grill & Bar - Thao Dien,https://www.tripadvisor.com/Restaurant_Review-g293925-d19390759-Reviews-Stoker_Woodfired_Grill_Bar_Thao_Dien-Ho_Chi_Minh_City.html,63,4.7,$$ - $$$,False,https://qr.me-qr.com/OXIrMMXV,,https://dynamic-media-cdn.tripadvisor.com/media/photo-o/1b/65/4f/c8/main-dining-area.jpg,10.802925,106.73405,False,False,"['Steakhouse', 'Bar', 'Grill']"
220,7704159,Pasteur Street Craft Beer - Original Taproom,https://www.tripadvisor.com/Restaurant_Review-g293925-d7704159-Reviews-Pasteur_Street_Craft_Beer_Original_Taproom-Ho_Chi_Minh_City.html,1345,4.5,$$ - $$$,False,https://drive.google.com/file/d/1tRgdAtAhkTSjSTES4lQYte_5bFlyoH6N/view?usp=sharing,,https://dynamic-media-cdn.tripadvisor.com/media/photo-o/19/61/75/b1/taps.jpg,10.775176,106.7009,False,True,"['Brew Pub', 'Bar', 'Grill', 'Beer restaurants']"
221,23977751,Coco Dining,https://www.tripadvisor.com/Restaurant_Review-g293925-d23977751-Reviews-Coco_Dining-Ho_Chi_Minh_City.html,42,4.8,$$ - $$$,False,https://drive.google.com/file/d/13AeBNTHRvuhm4jGkPPVp4uv1pacIQsar/view,,https://dynamic-media-cdn.tripadvisor.com/media/photo-o/2d/e3/67/0b/coco-saigon.jpg,10.78068,106.69329,False,False,"['Contemporary', 'Vietnamese']"
222,11750237,Oedo Alley - Japanese Food Village,https://www.tripadvisor.com/Restaurant_Review-g293925-d11750237-Reviews-Oedo_Alley_Japanese_Food_Village-Ho_Chi_Minh_City.html,351,4.4,$,False,,,https://dynamic-media-cdn.tripadvisor.com/media/photo-o/0d/71/c9/61/getlstd-property-photo.jpg,10.773742,106.70098,False,False,"['Japanese', 'Sushi', 'Asian']"
223,8274376,Banh Mi Hong Hoa,https://www.tripadvisor.com/Restaurant_Review-g293925-d8274376-Reviews-Banh_Mi_Hong_Hoa-Ho_Chi_Minh_City.html,186,4.4,$,False,,,https://dynamic-media-cdn.tripadvisor.com/media/photo-o/27/48/12/a9/caption.jpg,10.771014,106.69164,False,False,"['Fast Food', 'Asian', 'Vietnamese']"
224,4124426,Saigon Saigon Rooftop Bar,https://www.tripadvisor.com/Restaurant_Review-g293925-d4124426-Reviews-Saigon_Saigon_Rooftop_Bar-Ho_Chi_Minh_City.html,55,4.4,$$ - $$$,False,https://www.caravellehotel.com/wp-content/uploads/SSRB-Master-Drink-List-03-2023.pdf,,https://dynamic-media-cdn.tripadvisor.com/media/photo-o/28/74/b6/8b/saigon-saigon-rooftop.jpg,10.776006,106.70335,False,False,"['Bar', 'International']"
225,26635082,Cocoon Rooftop,https://www.tripadvisor.com/Restaurant_Review-g293925-d26635082-Reviews-Cocoon_Rooftop-Ho_Chi_Minh_City.html,126,5.0,$$ - $$$,False,https://linktr.ee/cocoonrooftop,,https://dynamic-media-cdn.tripadvisor.com/media/photo-o/2a/de/a1/90/a-spacious-place-central.jpg,10.763218,106.695305,False,False,"['Bar', 'Dining bars']"
226,27511669,Smith's Kitchen & Bar,https://www.tripadvisor.com/Restaurant_Review-g293925-d27511669-Reviews-Smith_s_Kitchen_Bar-Ho_Chi_Minh_City.html,48,4.9,$$ - $$$,False,,,https://dynamic-media-cdn.tripadvisor.com/media/photo-o/2b/bc/df/1c/vibe.jpg,10.771642,106.69734,False,False,"['Bar', 'European', 'Asian', 'Fusion']"
227,2286221,L'Usine Saigon Centre,https://www.tripadvisor.com/Restaurant_Review-g293925-d2286221-Reviews-L_Usine_Saigon_Centre-Ho_Chi_Minh_City.html,1747,4.3,$$ - $$$,False,https://lusinespace.com/view/Main-Menu.pdf,,https://dynamic-media-cdn.tripadvisor.com/media/photo-o/29/eb/1e/a0/l-usine-saigon-centre.jpg,10.775962,106.70319,False,False,"['Cafe', 'European']"
228,18927790,The Monkey Gallery Dining,https://www.tripadvisor.com/Restaurant_Review-g293925-d18927790-Reviews-The_Monkey_Gallery_Dining-Ho_Chi_Minh_City.html,156,4.6,$$$$,True,https://monkeygallery.vn/pages/dining-menu,,https://dynamic-media-cdn.tripadvisor.com/media/photo-o/2d/ed/bc/a8/restaurant-interior.jpg,10.774264,106.703865,False,True,"['Fusion', 'Vietnamese', 'Healthy']"
229,28052954,Hải Sản Hoàng Gia Cn 46 Phạm Văn Nghị,https://www.tripadvisor.com/Restaurant_Review-g293925-d28052954-Reviews-H_i_S_n_Hoang_Gia_Cn_46_Ph_m_Van_Ngh-Ho_Chi_Minh_City.html,11,4.9,$$$$,False,https://haisanhoanggia.com/pages/menu-che-bien,,https://dynamic-media-cdn.tripadvisor.com/media/photo-o/2d/2a/22/9f/king-crab.jpg,10.725457,106.706924,False,False,"['Seafood', 'Sushi', 'Vietnamese', 'Indigenous']"
230,12245392,Meat & Meet Korean BBQ Container Restaurant,https://www.tripadvisor.com/Restaurant_Review-g293925-d12245392-Reviews-Meat_Meet_Korean_BBQ_Container_Restaurant-Ho_Chi_Minh_City.html,83,4.1,$$ - $$$,False,,,https://dynamic-media-cdn.tripadvisor.com/media/photo-o/0e/c3/b1/77/background.jpg,10.771408,106.69284,False,False,"['Barbecue', 'Asian', 'Korean', 'Diner']"
231,3983330,Cyclo Resto,https://www.tripadvisor.com/Restaurant_Review-g293925-d3983330-Reviews-Cyclo_Resto-Ho_Chi_Minh_City.html,3713,4.7,$,False,http://www.cycloresto.vn/,,https://dynamic-media-cdn.tripadvisor.com/media/photo-o/04/a7/62/83/cyclo-resto-company-limited.jpg,10.77312,106.694016,False,False,"['Asian', 'Vietnamese', 'Healthy']"
232,23942331,Terraviva Pizza & Italian Cuisine,https://www.tripadvisor.com/Restaurant_Review-g293925-d23942331-Reviews-Terraviva_Pizza_Italian_Cuisine-Ho_Chi_Minh_City.html,39,5.0,$$ - $$$,False,https://lh3.googleusercontent.com/p/AF1QipMK-6-Z1qcy6DxykbpMH7twd7imVhXmNph8TCb3=s1360-w1360-h1020-rw,,https://dynamic-media-cdn.tripadvisor.com/media/photo-o/2f/41/99/26/caption.jpg,10.809169,106.75386,False,False,"['Italian', 'Pizza', 'European', 'Deli', 'Northern-Italian']"
233,3640337,Yu Chu,https://www.tripadvisor.com/Restaurant_Review-g293925-d3640337-Reviews-Yu_Chu-Ho_Chi_Minh_City.html,125,4.4,$$ - $$$,False,,,https://dynamic-media-cdn.tripadvisor.com/media/photo-o/2f/71/cb/2e/warm-hospitality-at-yu.jpg,10.781014,106.70075,False,False,"['Chinese', 'Asian', 'Cantonese', 'Szechuan', 'Shanghai', 'Hong Kong']"
234,15618103,Chay Garden - Vegetarian Restaurant & Coffee,https://www.tripadvisor.com/Restaurant_Review-g293925-d15618103-Reviews-Chay_Garden_Vegetarian_Restaurant_Coffee-Ho_Chi_Minh_City.html,95,4.6,$$ - $$$,False,https://chaygarden.com/menu,,https://dynamic-media-cdn.tripadvisor.com/media/photo-o/17/0e/48/9d/chay-garden-vegetarian.jpg,10.77808,106.69086,False,False,"['Cafe', 'Asian', 'Vietnamese', 'Healthy', 'Soups']"
235,7112920,The Long Times Square,https://www.tripadvisor.com/Restaurant_Review-g293925-d7112920-Reviews-The_Long_Times_Square-Ho_Chi_Minh_City.html,864,4.6,$$ - $$$,False,,,https://dynamic-media-cdn.tripadvisor.com/media/photo-o/25/d6/d2/c2/the-long-interior.jpg,10.773932,106.7048,False,False,"['Bar', 'Pizza', 'International', 'European']"
236,8779309,Bep Nha Xu Quang,https://www.tripadvisor.com/Restaurant_Review-g293925-d8779309-Reviews-Bep_Nha_Xu_Quang-Ho_Chi_Minh_City.html,137,4.2,$$ - $$$,False,https://namkyretro.com/bep-nha-xu-quang/,,https://dynamic-media-cdn.tripadvisor.com/media/photo-o/16/d9/4d/0e/bep-nha-xu-quang.jpg,10.784532,106.69771,False,False,['Vietnamese']
237,24901009,Barson,https://www.tripadvisor.com/Restaurant_Review-g293925-d24901009-Reviews-Barson-Ho_Chi_Minh_City.html,57,5.0,$$ - $$$,False,,https://tripadvisor.com/Commerce?p=Restaurants_SevenRooms&src=238734268&geo=24901009&from=Restaurants&area=reservation_button&slot=1&matchID=1&oos=0&cnt=1&silo=29025&bucket=870813&nrank=1&crank=1&clt=R&ttype=Restaurant&tm=328629129&managed=false&capped=false&gosox=E4dS6BmBGdrr2qeEMfyM4Ykh7g7kZZMQtwvX1r7-bZn0SG8wi-cOieoDR1eMjOtRNGi9I6nuBPmXmunT2F7Y2czdXcMSs5chVZkhNWd1trQ&cs=1f060c735a63fe17e29b0708547c43161_m7E,https://dynamic-media-cdn.tripadvisor.com/media/photo-o/2a/7c/d6/56/good-wine-good-food-are.jpg,10.779904,106.70747,False,False,"['Bar', 'Wine Bar', 'Dining bars']"
238,27457230,Vintage Taste Deli Cafe,https://www.tripadvisor.com/Restaurant_Review-g293925-d27457230-Reviews-Vintage_Taste_Deli_Cafe-Ho_Chi_Minh_City.html,105,4.9,$$$$,False,https://vintagetastedeli.cafe/menu/,,https://dynamic-media-cdn.tripadvisor.com/media/photo-o/2c/f0/63/90/nhin-ben-ngoai.jpg,10.840272,106.84175,False,False,"['Italian', 'American', 'Vietnamese']"
239,1125106,Au Parc,https://www.tripadvisor.com/Restaurant_Review-g293925-d1125106-Reviews-Au_Parc-Ho_Chi_Minh_City.html,808,4.2,$$ - $$$,False,https://auparcsaigon.com/menu/,,https://dynamic-media-cdn.tripadvisor.com/media/photo-o/2b/c7/36/3b/when-we-mention-mediterranean.jpg,10.778979,106.69833,False,False,"['Cafe', 'Mediterranean']"
240,1898419,Mandarine Restaurant,https://www.tripadvisor.com/Restaurant_Review-g293925-d1898419-Reviews-Mandarine_Restaurant-Ho_Chi_Minh_City.html,472,4.1,$$$$,False,https://mandarine.com.vn/thuc-don/,,https://dynamic-media-cdn.tripadvisor.com/media/photo-o/26/d2/b3/91/mandarine.jpg,10.781061,106.70621,False,True,"['Asian', 'Vietnamese']"
241,25449348,Shoku,https://www.tripadvisor.com/Restaurant_Review-g293925-d25449348-Reviews-Shoku-Ho_Chi_Minh_City.html,92,4.9,$$ - $$$,False,,,https://dynamic-media-cdn.tripadvisor.com/media/photo-o/29/11/70/b4/sashimi-teishoku-h-i.jpg,10.781374,106.70629,False,False,"['Japanese', 'Seafood', 'International', 'Sushi', 'Asian', 'Contemporary', 'Japanese Fusion']"
242,6695074,The Crab Shack,https://www.tripadvisor.com/Restaurant_Review-g293925-d6695074-Reviews-The_Crab_Shack-Ho_Chi_Minh_City.html,66,3.8,$$ - $$$,False,,,https://dynamic-media-cdn.tripadvisor.com/media/photo-o/12/aa/14/09/main-logo.jpg,10.777376,106.68338,False,False,"['Cajun & Creole', 'Seafood', 'International']"
243,28132485,Yen Sushi Sake Pub,https://www.tripadvisor.com/Restaurant_Review-g293925-d28132485-Reviews-Yen_Sushi_Sake_Pub-Ho_Chi_Minh_City.html,73,5.0,$$ - $$$,False,,,https://dynamic-media-cdn.tripadvisor.com/media/photo-o/2d/49/94/d6/yen-sushi.jpg,10.783079,106.696976,False,False,"['Japanese', 'Japanese Fusion']"
244,15190124,Mrsimple Steakhouse,https://www.tripadvisor.com/Restaurant_Review-g293925-d15190124-Reviews-Mrsimple_Steakhouse-Ho_Chi_Minh_City.html,75,4.6,$,True,http://www.mrsimplesteakhouse.com/menu,,https://dynamic-media-cdn.tripadvisor.com/media/photo-o/2f/84/90/0a/where-love-tastes-bette.jpg,10.78712,106.6922,False,True,"['Italian', 'French', 'Steakhouse', 'Fusion']"
245,26794670,Phở Việt Nam - Phạm Hồng Thái,https://www.tripadvisor.com/Restaurant_Review-g293925-d26794670-Reviews-Ph_Vi_t_Nam_Ph_m_H_ng_Thai-Ho_Chi_Minh_City.html,200,4.8,$,True,http://phovietnam.vn/,,https://dynamic-media-cdn.tripadvisor.com/media/photo-o/2a/af/3e/68/ph-d-c-bi-t.jpg,10.771386,106.69614,False,True,"['Vietnamese', 'Soups', 'Indigenous']"
246,809040,Ngon 138 Restaurant (Quán Ngon 138),https://www.tripadvisor.com/Restaurant_Review-g293925-d809040-Reviews-Ngon_138_Restaurant_Quan_Ngon_138-Ho_Chi_Minh_City.html,1314,3.8,$$ - $$$,False,http://www.quanngon138.com/menu-online.html,,https://dynamic-media-cdn.tripadvisor.com/media/photo-o/27/07/ba/bc/thu-ng-th-c-huong-v-d.jpg,10.777452,106.69742,False,True,"['Asian', 'Vietnamese']"
247,24066494,Black Vinegar,https://www.tripadvisor.com/Restaurant_Review-g293925-d24066494-Reviews-Black_Vinegar-Ho_Chi_Minh_City.html,84,5.0,$$$$,False,https://saigon.newworldhotels.com/wp-content/uploads/sites/18/2022/05/Black-Vinegar-ALC-Menu2.pdf,,https://dynamic-media-cdn.tripadvisor.com/media/photo-o/23/82/69/45/black-vinegar-cantonese.jpg,10.770925,106.69504,False,False,"['Chinese', 'Seafood', 'Asian', 'Contemporary', 'Healthy', 'Cantonese']"
248,1136051,Barbecue Garden Restaurant,https://www.tripadvisor.com/Restaurant_Review-g293925-d1136051-Reviews-Barbecue_Garden_Restaurant-Ho_Chi_Minh_City.html,1453,3.9,$$ - $$$,False,,,https://dynamic-media-cdn.tripadvisor.com/media/photo-o/1c/56/1e/46/combo.jpg,10.768898,106.66835,False,False,"['Barbecue', 'Asian', 'Grill']"
249,1596125,Halal Saigon,https://www.tripadvisor.com/Restaurant_Review-g293925-d1596125-Reviews-Halal_Saigon-Ho_Chi_Minh_City.html,174,3.8,$$ - $$$,False,,,https://dynamic-media-cdn.tripadvisor.com/media/photo-o/18/8c/28/2d/khong-gian-m-i-th-t-tuy.jpg,10.776092,106.70473,False,False,"['Asian', 'Malaysian']"
250,2468834,La Crêperie Ho Chi Minh City,https://www.tripadvisor.com/Restaurant_Review-g293925-d2468834-Reviews-La_Creperie_Ho_Chi_Minh_City-Ho_Chi_Minh_City.html,403,4.5,$$ - $$$,False,,,https://dynamic-media-cdn.tripadvisor.com/media/photo-o/08/92/fc/ce/restaurant.jpg,10.806584,106.73002,False,False,"['French', 'European']"
251,18927790,The Monkey Gallery Dining,https://www.tripadvisor.com/Restaurant_Review-g293925-d18927790-Reviews-The_Monkey_Gallery_Dining-Ho_Chi_Minh_City.html,156,4.6,$$$$,True,https://monkeygallery.vn/pages/dining-menu,,https://dynamic-media-cdn.tripadvisor.com/media/photo-o/2d/ed/bc/a8/restaurant-interior.jpg,10.774264,106.703865,False,True,"['Fusion', 'Vietnamese', 'Healthy']"
252,810797,Hoi An Sense - Central Vietnamese Cuisine,https://www.tripadvisor.com/Restaurant_Review-g293925-d810797-Reviews-Hoi_An_Sense_Central_Vietnamese_Cuisine-Ho_Chi_Minh_City.html,299,4.1,$$$$,False,,,https://dynamic-media-cdn.tripadvisor.com/media/photo-o/13/da/55/9c/relaxing-ambiance-with.jpg,10.790346,106.69885,False,False,['Vietnamese']
253,1741416,Basilico,https://www.tripadvisor.com/Restaurant_Review-g293925-d1741416-Reviews-Basilico-Ho_Chi_Minh_City.html,309,4.2,$$ - $$$,False,,,https://dynamic-media-cdn.tripadvisor.com/media/photo-o/2f/71/b7/29/basilico-restaurant-in.jpg,10.781466,106.70131,False,False,"['Italian', 'Pizza', 'Mediterranean', 'Tuscan', 'Sicilian', 'Central-Italian', 'Southern-Italian']"
254,8777693,TukTuk Thai Bistro 2,https://www.tripadvisor.com/Restaurant_Review-g293925-d8777693-Reviews-TukTuk_Thai_Bistro_2-Ho_Chi_Minh_City.html,205,4.4,$$ - $$$,False,,,https://dynamic-media-cdn.tripadvisor.com/media/photo-o/16/e7/c3/65/photo0jpg.jpg,10.777391,106.700516,False,False,"['Asian', 'Thai']"
255,1344965,Cơm Niêu Sài Gòn,https://www.tripadvisor.com/Restaurant_Review-g293925-d1344965-Reviews-Com_Nieu_Sai_Gon-Ho_Chi_Minh_City.html,320,3.6,$$ - $$$,False,,,https://dynamic-media-cdn.tripadvisor.com/media/photo-o/15/91/30/f0/l-enseigne.jpg,10.78201,106.68784,False,False,"['Asian', 'Vietnamese']"
256,12665149,Al Sham Restaurant,https://www.tripadvisor.com/Restaurant_Review-g293925-d12665149-Reviews-Al_Sham_Restaurant-Ho_Chi_Minh_City.html,89,4.4,$$ - $$$,False,http://alshamsaigon.com,,https://dynamic-media-cdn.tripadvisor.com/media/photo-o/1c/e4/73/34/314-vo-van-ki-t-q1.jpg,10.762087,106.696495,False,False,"['Lebanese', 'Mediterranean', 'Middle Eastern', 'Arabic']"
257,28045149,Residence Eleven ,https://www.tripadvisor.com/Restaurant_Review-g293925-d28045149-Reviews-Residence_Eleven-Ho_Chi_Minh_City.html,55,5.0,$$$$,False,https://www.sevenrooms.com/experiences/residenceeleven,,https://dynamic-media-cdn.tripadvisor.com/media/photo-o/2c/fd/31/4e/caption.jpg,10.775792,106.70657,False,False,"['Chinese', 'Asian', 'Cantonese']"
258,17382433,Haidilao,https://www.tripadvisor.com/Restaurant_Review-g293925-d17382433-Reviews-Haidilao-Ho_Chi_Minh_City.html,35,4.3,$$ - $$$,False,,,https://dynamic-media-cdn.tripadvisor.com/media/photo-o/17/aa/17/36/img-20190430-175308-largejpg.jpg,10.771368,106.70446,False,False,['Chinese']
259,13873560,Kasen,https://www.tripadvisor.com/Restaurant_Review-g293925-d13873560-Reviews-Kasen-Ho_Chi_Minh_City.html,118,4.7,$$ - $$$,False,http://www.kasen.vn/,,https://dynamic-media-cdn.tripadvisor.com/media/photo-o/2f/f2/b9/6b/premium-sushi-and-sake.jpg,10.771086,106.69047,False,False,['Sushi']
260,3720812,Banh Mi 37 Nguyen Trai,https://www.tripadvisor.com/Restaurant_Review-g293925-d3720812-Reviews-Banh_Mi_37_Nguyen_Trai-Ho_Chi_Minh_City.html,312,4.6,$,False,,,https://dynamic-media-cdn.tripadvisor.com/media/photo-o/09/4e/b3/b9/20151023-155406-largejpg.jpg,10.77079,106.69248,False,False,"['Fast Food', 'Asian', 'Vietnamese']"
261,25370464,Dodo Pizza Tran Hung Dao,https://www.tripadvisor.com/Restaurant_Review-g293925-d25370464-Reviews-Dodo_Pizza_Tran_Hung_Dao-Ho_Chi_Minh_City.html,134,4.9,$$$$,False,http://www.dodopizza.vn/,,https://dynamic-media-cdn.tripadvisor.com/media/photo-o/2c/26/12/40/the-dodo-supreme-pizza.jpg,10.766656,106.69442,False,False,"['Pizza', 'Fast Food', 'International']"
262,28052954,Hải Sản Hoàng Gia Cn 46 Phạm Văn Nghị,https://www.tripadvisor.com/Restaurant_Review-g293925-d28052954-Reviews-H_i_S_n_Hoang_Gia_Cn_46_Ph_m_Van_Ngh-Ho_Chi_Minh_City.html,11,4.9,$$$$,True,https://haisanhoanggia.com/pages/menu-che-bien,,https://dynamic-media-cdn.tripadvisor.com/media/photo-o/2d/2a/22/9f/king-crab.jpg,10.725457,106.706924,False,False,"['Seafood', 'Sushi', 'Vietnamese', 'Indigenous']"
