,id,name,link,reviews,rating,price_range_usd,is_sponsored,menu_link,reservation_link,featured_image,latitude,longitude,has_delivery,is_premium,cuisines
0,18970342,Lan Chau Restaurant,https://www.tripadvisor.com/Restaurant_Review-g4235728-d18970342-Reviews-Lan_Chau_Restaurant-Cua_Lo_Nghe_An_Province.html,11,4.7,$$ - $$$,False,https://songnguson.vn/xuan-thanh.html,,https://dynamic-media-cdn.tripadvisor.com/media/photo-o/19/ce/f8/67/ban-cong-t-ng-2-nha-hang.jpg,18.820253,105.72159,False,False,"['Seafood', 'European', 'Asian', 'Vietnamese', 'Healthy']"
1,16871317,Nha Hang Van Chai - Seafood Restaurant,https://www.tripadvisor.com/Restaurant_Review-g1554764-d16871317-Reviews-Nha_Hang_Van_Chai_Seafood_Restaurant-Vinh_Nghe_An_Province.html,5,4.6,$,False,,,https://dynamic-media-cdn.tripadvisor.com/media/photo-o/16/eb/f5/97/m-t-tru-c-c-a-nha-hang.jpg,18.697105,105.68583,False,False,"['Brew Pub', 'Bar', 'Seafood', 'Asian', 'Deli', 'Pub', 'Vietnamese', 'Wine Bar']"
2,13975482,Luon Cay Gia Truyen Phuong Dao,https://www.tripadvisor.com/Restaurant_Review-g4235728-d13975482-Reviews-Luon_Cay_Gia_Truyen_Phuong_Dao-Cua_Lo_Nghe_An_Province.html,12,4.8,$,False,,,https://dynamic-media-cdn.tripadvisor.com/media/photo-o/12/95/ff/53/getlstd-property-photo.jpg,18.804487,105.72132,False,False,"['Fast Food', 'European', 'Asian', 'Korean', 'Vietnamese']"
3,17157808,The American Steak Restaurant,https://www.tripadvisor.com/Restaurant_Review-g1554764-d17157808-Reviews-The_American_Steak_Restaurant-Vinh_Nghe_An_Province.html,25,4.4,$$ - $$$,False,,,https://dynamic-media-cdn.tripadvisor.com/media/photo-o/17/13/c3/e5/20190407-203716-largejpg.jpg,18.666714,105.68167,False,False,['Steakhouse']
4,26321561,Nhà hàng Nemo Sóng xanh,https://www.tripadvisor.com/Restaurant_Review-g1554764-d26321561-Reviews-Nha_hang_Nemo_Song_xanh-Vinh_Nghe_An_Province.html,2,5.0,,False,,,https://dynamic-media-cdn.tripadvisor.com/media/photo-o/29/af/f9/b6/anh-ngoai-nha-hang.jpg,18.658634,105.67821,False,False,"['Seafood', 'Barbecue', 'European', 'Thai', 'Indigenous']"
5,14199127,Nha Hang Ga Thanh Chuong,https://www.tripadvisor.com/Restaurant_Review-g1554764-d14199127-Reviews-Nha_Hang_Ga_Thanh_Chuong-Vinh_Nghe_An_Province.html,5,4.0,$,False,,,https://dynamic-media-cdn.tripadvisor.com/media/photo-o/15/30/51/33/ga-khong-l-i-thoat.jpg,18.65909,105.67758,False,False,"['Fast Food', 'Deli']"
6,14199266,Nha Hang Ga Thanh Chuong 2,https://www.tripadvisor.com/Restaurant_Review-g1554764-d14199266-Reviews-Nha_Hang_Ga_Thanh_Chuong_2-Vinh_Nghe_An_Province.html,5,4.2,$,False,,,https://dynamic-media-cdn.tripadvisor.com/media/photo-o/15/28/ac/be/ga-khong-l-i-thoat.jpg,18.659086,105.67758,False,False,['Deli']
7,17704139,Padma Restaurant,https://www.tripadvisor.com/Restaurant_Review-g4235728-d17704139-Reviews-Padma_Restaurant-Cua_Lo_Nghe_An_Province.html,4,5.0,$,False,,,https://dynamic-media-cdn.tripadvisor.com/media/photo-o/18/87/fc/45/nha-hang-padma.jpg,18.7712,105.756584,False,False,"['Seafood', 'European', 'Asian', 'Vietnamese']"
8,19042286,Nha Hang Huong Son 69 Cua Lo,https://www.tripadvisor.com/Restaurant_Review-g4235728-d19042286-Reviews-Nha_Hang_Huong_Son_69_Cua_Lo-Cua_Lo_Nghe_An_Province.html,1,5.0,,False,,,https://dynamic-media-cdn.tripadvisor.com/media/photo-o/19/61/5d/4d/wonderful-place-very.jpg,,,False,False,"['Seafood', 'Vietnamese', 'Soups']"
9,7070091,Gogi House,https://www.tripadvisor.com/Restaurant_Review-g1554764-d7070091-Reviews-Gogi_House-Vinh_Nghe_An_Province.html,21,4.2,$$ - $$$,False,http://gogi.com.vn/menus/thuc-don-gogi/,,https://dynamic-media-cdn.tripadvisor.com/media/photo-o/11/16/46/17/photo0jpg.jpg,18.675072,105.67435,False,False,"['Barbecue', 'Asian', 'Korean', 'Grill']"
10,16813042,Nha Hang Hai San Bien Xanh,https://www.tripadvisor.com/Restaurant_Review-g1554764-d16813042-Reviews-Nha_Hang_Hai_San_Bien_Xanh-Vinh_Nghe_An_Province.html,4,4.8,$$ - $$$,False,,,https://dynamic-media-cdn.tripadvisor.com/media/photo-o/16/cd/de/ad/co-s-2.jpg,18.676424,105.673065,False,False,['Seafood']
11,14041608,Nha hang Hai San Dai Duong,https://www.tripadvisor.com/Restaurant_Review-g1554764-d14041608-Reviews-Nha_hang_Hai_San_Dai_Duong-Vinh_Nghe_An_Province.html,3,4.7,$$ - $$$,False,,,https://dynamic-media-cdn.tripadvisor.com/media/photo-o/12/c1/71/d9/getlstd-property-photo.jpg,18.709217,105.678505,False,False,"['Caribbean', 'Seafood', 'European', 'Deli', 'Vietnamese', 'Bahamian', 'Central European']"
12,12621390,Gin' Pizza,https://www.tripadvisor.com/Restaurant_Review-g1554764-d12621390-Reviews-Gin_Pizza-Vinh_Nghe_An_Province.html,12,4.6,,False,,,https://dynamic-media-cdn.tripadvisor.com/media/photo-o/0f/e4/c5/c8/photo0jpg.jpg,18.666174,105.70191,False,False,"['Italian', 'Pizza']"
13,12269249,Sura BBQ Restaurant,https://www.tripadvisor.com/Restaurant_Review-g1554764-d12269249-Reviews-Sura_BBQ_Restaurant-Vinh_Nghe_An_Province.html,8,4.4,,False,,,https://dynamic-media-cdn.tripadvisor.com/media/photo-o/0e/d5/a7/a7/d-nu-ng-th-ga-nha.jpg,18.66586,105.67909,False,False,[]
14,19546742,Sen Que Restaurant,https://www.tripadvisor.com/Restaurant_Review-g19578504-d19546742-Reviews-Sen_Que_Restaurant-Kim_Lien_Nghe_An_Province.html,1,5.0,$$ - $$$,False,,,https://dynamic-media-cdn.tripadvisor.com/media/photo-o/1a/52/53/a5/m-t-phong-c-a-nha-hang.jpg,18.68529,105.569626,False,False,"['Seafood', 'Asian', 'Pub', 'Vietnamese', 'Gastropub', 'Beer restaurants']"
15,27136449,Aota Garden ,https://www.tripadvisor.com/Restaurant_Review-g1554764-d27136449-Reviews-Aota_Garden-Vinh_Nghe_An_Province.html,2,5.0,,False,,,https://dynamic-media-cdn.tripadvisor.com/media/photo-o/2b/41/71/2b/caption.jpg,18.677069,105.69164,False,False,['Vietnamese']
16,4773910,Saigon Kim Lien Restaurant,https://www.tripadvisor.com/Restaurant_Review-g1554764-d4773910-Reviews-Saigon_Kim_Lien_Restaurant-Vinh_Nghe_An_Province.html,25,3.8,$$ - $$$,False,,,https://dynamic-media-cdn.tripadvisor.com/media/photo-o/09/fb/46/47/photo0jpg.jpg,18.67106,105.6741,False,False,"['Asian', 'Vietnamese']"
17,17379458,Nha Hang Son Que - Tu Nam 1999,https://www.tripadvisor.com/Restaurant_Review-g1554764-d17379458-Reviews-Nha_Hang_Son_Que_Tu_Nam_1999-Vinh_Nghe_An_Province.html,2,5.0,,False,,,https://dynamic-media-cdn.tripadvisor.com/media/photo-o/17/3e/c4/89/getlstd-property-photo.jpg,18.67757,105.59209,False,False,[]
18,6028218,Miao's Pizza,https://www.tripadvisor.com/Restaurant_Review-g1554764-d6028218-Reviews-Miao_s_Pizza-Vinh_Nghe_An_Province.html,31,3.5,$$ - $$$,False,,,https://dynamic-media-cdn.tripadvisor.com/media/photo-o/05/63/ab/10/at-miaow-pizza.jpg,18.678047,105.67822,False,False,"['Italian', 'Pizza']"
19,17464894,Nha Hang Cuong Hang 129,https://www.tripadvisor.com/Restaurant_Review-g4235728-d17464894-Reviews-Nha_Hang_Cuong_Hang_129-Cua_Lo_Nghe_An_Province.html,1,1.0,$,False,,,https://dynamic-media-cdn.tripadvisor.com/media/photo-o/17/8a/9c/9b/getlstd-property-photo.jpg,18.804188,105.72648,False,False,"['Seafood', 'Deli']"
20,23016501,D'Art Chocolate Vinh - Nghệ An,https://www.tripadvisor.com/Restaurant_Review-g1554764-d23016501-Reviews-D_Art_Chocolate_Vinh_Ngh_An-Vinh_Nghe_An_Province.html,6,5.0,$$ - $$$,False,https://socolatpvinhna.blogspot.com,,https://dynamic-media-cdn.tripadvisor.com/media/photo-o/1c/76/c4/f0/h-p-socola.jpg,18.679382,105.69968,False,False,"['Belgian', 'European', 'Deli', 'Healthy']"
21,4758191,Viet Duc,https://www.tripadvisor.com/Restaurant_Review-g1554764-d4758191-Reviews-Viet_Duc-Vinh_Nghe_An_Province.html,5,4.4,,False,,,https://dynamic-media-cdn.tripadvisor.com/media/photo-o/1a/f2/8c/49/c-m-giac-m-cung-ben-gia.jpg,18.68043,105.70403,False,False,['Vietnamese']
22,24110782,Nhà Hàng Kinh Vĩ Brasserie,https://www.tripadvisor.com/Restaurant_Review-g1554764-d24110782-Reviews-Nha_Hang_Kinh_Vi_Brasserie-Vinh_Nghe_An_Province.html,1,5.0,,False,,,https://dynamic-media-cdn.tripadvisor.com/media/photo-o/25/0b/25/85/nha-hang-kinh-vi.jpg,18.686428,105.68687,False,False,"['Cafe', 'Deli']"
23,7070092,Vuvuzela,https://www.tripadvisor.com/Restaurant_Review-g1554764-d7070092-Reviews-Vuvuzela-Vinh_Nghe_An_Province.html,36,3.5,$$ - $$$,False,,,https://dynamic-media-cdn.tripadvisor.com/media/photo-o/12/be/e3/34/photo9jpg.jpg,18.675035,105.67438,False,False,"['Brew Pub', 'Bar', 'Pub']"
24,10865599,Nhà Hàng Hoàng An Villa,https://www.tripadvisor.com/Restaurant_Review-g1554764-d10865599-Reviews-Nha_Hang_Hoang_An_Villa-Vinh_Nghe_An_Province.html,1,5.0,,False,,,https://dynamic-media-cdn.tripadvisor.com/media/photo-o/13/8a/a9/fb/photo1jpg.jpg,18.66587,105.67198,False,False,"['Seafood', 'Thai', 'Vietnamese', 'Diner']"
25,13124568,Bachi Bachi Restaurant,https://www.tripadvisor.com/Restaurant_Review-g1554764-d13124568-Reviews-Bachi_Bachi_Restaurant-Vinh_Nghe_An_Province.html,5,5.0,$,False,,,https://dynamic-media-cdn.tripadvisor.com/media/photo-o/11/40/2b/02/1510484805558-largejpg.jpg,18.671791,105.69926,False,False,"['Asian', 'Korean']"
26,27782824,"Nhà Hàng Gió Biển - 252 Bình Minh, Cửa Lò",https://www.tripadvisor.com/Restaurant_Review-g4235728-d27782824-Reviews-Nha_Hang_Gio_Bi_n_252_Binh_Minh_C_a_Lo-Cua_Lo_Nghe_An_Province.html,0,0.0,,False,,,,10.7692,106.60293,False,False,"['Seafood', 'Vietnamese', 'Beer restaurants']"
27,33107922,Nathan Thai Fusion Restaurant,https://www.tripadvisor.com/Restaurant_Review-g1554764-d33107922-Reviews-Nathan_Thai_Fusion_Restaurant-Vinh_Nghe_An_Province.html,0,0.0,$$ - $$$,False,https://online.fliphtml5.com/ddugp/fkuo/,,https://dynamic-media-cdn.tripadvisor.com/media/photo-o/2f/c8/63/bd/nathan-thai-contemporary.jpg,18.672012,105.6985,False,False,['Thai']
28,12882086,nha hang du thuyen Hai Chau,https://www.tripadvisor.com/Restaurant_Review-g1554764-d12882086-Reviews-Nha_hang_du_thuyen_Hai_Chau-Vinh_Nghe_An_Province.html,1,4.0,,False,,,https://dynamic-media-cdn.tripadvisor.com/media/photo-o/10/a6/69/19/nha-hang-du-thuy-n-h.jpg,18.644093,105.69959,False,False,"['Seafood', 'Vietnamese']"
29,18114302,Fujimo Restaurant,https://www.tripadvisor.com/Restaurant_Review-g1554764-d18114302-Reviews-Fujimo_Restaurant-Vinh_Nghe_An_Province.html,1,5.0,,False,,,https://dynamic-media-cdn.tripadvisor.com/media/photo-o/18/b6/88/db/fujimo-restaurant-add.jpg,,,False,False,[]
30,23089961,D'Art Socola Vinh - Nghệ An,https://www.tripadvisor.com/Restaurant_Review-g1554764-d23089961-Reviews-D_Art_Socola_Vinh_Ngh_An-Vinh_Nghe_An_Province.html,3,5.0,$$ - $$$,False,http://chocolatevinh.blogspot.com,,https://dynamic-media-cdn.tripadvisor.com/media/photo-o/1c/8c/fa/ae/h-p-va-tui-xach.jpg,18.679405,105.69971,False,False,['Belgian']
31,19552717,Nha Hang Chay Hoan Chau,https://www.tripadvisor.com/Restaurant_Review-g1554764-d19552717-Reviews-Nha_Hang_Chay_Hoan_Chau-Vinh_Nghe_An_Province.html,0,0.0,$$ - $$$,False,,,https://dynamic-media-cdn.tripadvisor.com/media/photo-o/1b/53/88/d0/1st-floor.jpg,18.685976,105.680176,False,False,"['Asian', 'Deli', 'Vietnamese']"
32,15749932,Shogun Vinh - Japanese Street BBQ,https://www.tripadvisor.com/Restaurant_Review-g1554764-d15749932-Reviews-Shogun_Vinh_Japanese_Street_BBQ-Vinh_Nghe_An_Province.html,1,5.0,,False,,,https://dynamic-media-cdn.tripadvisor.com/media/photo-o/1b/94/60/a5/shogun-vinh-japanese.jpg,18.676504,105.67729,False,False,[]
33,21191920,Horus Boardgames Cafe,https://www.tripadvisor.com/Restaurant_Review-g1554764-d21191920-Reviews-Horus_Boardgames_Cafe-Vinh_Nghe_An_Province.html,2,5.0,$,False,,,https://dynamic-media-cdn.tripadvisor.com/media/photo-o/1b/b5/c4/93/horus-board-game-cafe.jpg,18.674664,105.685875,False,False,"['Cafe', 'Fast Food', 'Street Food']"
34,20225273,Hai san 179,https://www.tripadvisor.com/Restaurant_Review-g1554764-d20225273-Reviews-Hai_san_179-Vinh_Nghe_An_Province.html,0,0.0,$$$$,False,,,,18.697308,105.68497,False,False,[]
35,21229885,Hoa Ban Restaurant,https://www.tripadvisor.com/Restaurant_Review-g1554764-d21229885-Reviews-Hoa_Ban_Restaurant-Vinh_Nghe_An_Province.html,0,0.0,$,False,,,https://dynamic-media-cdn.tripadvisor.com/media/photo-o/1b/d1/fc/bb/quang-c-nh-chung-nha.jpg,18.647165,105.67135,False,False,"['Seafood', 'European', 'Asian', 'Vietnamese', 'Beer restaurants']"
36,15603084,King BBQ,https://www.tripadvisor.com/Restaurant_Review-g1554764-d15603084-Reviews-King_BBQ-Vinh_Nghe_An_Province.html,2,4.0,,False,,,https://dynamic-media-cdn.tripadvisor.com/media/photo-o/29/8d/30/af/excellent-meal-w-friends.jpg,18.68762,105.6662,False,False,"['Asian', 'Korean']"
37,23761375,Gourmet Pizza,https://www.tripadvisor.com/Restaurant_Review-g1554764-d23761375-Reviews-Gourmet_Pizza-Vinh_Nghe_An_Province.html,1,5.0,,False,,,https://dynamic-media-cdn.tripadvisor.com/media/photo-o/21/70/0b/99/parma-ham-and-mushroom.jpg,18.671598,105.6818,False,False,"['Italian', 'Steakhouse', 'Pizza']"
38,27016364,Vegan Planet,https://www.tripadvisor.com/Restaurant_Review-g1554764-d27016364-Reviews-Vegan_Planet-Vinh_Nghe_An_Province.html,0,0.0,,False,,,https://dynamic-media-cdn.tripadvisor.com/media/photo-o/2b/76/fa/ed/vegan.jpg,18.728985,105.66896,False,False,"['Italian', 'Indian', 'Asian', 'Korean']"
39,17281924,Nha Hang Con Bo Vang,https://www.tripadvisor.com/Restaurant_Review-g1554764-d17281924-Reviews-Nha_Hang_Con_Bo_Vang-Vinh_Nghe_An_Province.html,1,5.0,,False,,,,18.66667,105.68151,False,False,"['Asian', 'Thai', 'Vietnamese', 'Taiwanese']"
40,13128515,Khong Gian Xanh Restaurant,https://www.tripadvisor.com/Restaurant_Review-g1554764-d13128515-Reviews-Khong_Gian_Xanh_Restaurant-Vinh_Nghe_An_Province.html,1,1.0,$$$$,False,,,https://dynamic-media-cdn.tripadvisor.com/media/photo-o/11/b1/f6/b0/nha-hang-khong-gian-xanh.jpg,18.701878,105.68347,False,False,"['Cafe', 'Seafood', 'European', 'Asian', 'Diner']"
41,18891897,Banh Muot Ba Lan,https://www.tripadvisor.com/Restaurant_Review-g1554764-d18891897-Reviews-Banh_Muot_Ba_Lan-Vinh_Nghe_An_Province.html,1,4.0,,False,,,,18.66477,105.69784,False,False,[]
42,17653478,Bánh canh cá lóc dì Quý,https://www.tripadvisor.com/Restaurant_Review-g1554764-d17653478-Reviews-Banh_canh_ca_loc_di_Quy-Vinh_Nghe_An_Province.html,0,0.0,$,False,,,https://dynamic-media-cdn.tripadvisor.com/media/photo-o/18/9e/5e/56/great-recipe.jpg,18.68203,105.688896,False,False,"['Vietnamese', 'Street Food', 'Soups']"
43,12330833,Tom Tit,https://www.tripadvisor.com/Restaurant_Review-g4235728-d12330833-Reviews-Tom_Tit-Cua_Lo_Nghe_An_Province.html,2,2.5,$,False,,,,18.79998,105.71194,False,False,"['American', 'Asian', 'Korean', 'Vietnamese']"
44,11874314,Lassy Coffee,https://www.tripadvisor.com/Restaurant_Review-g1554764-d11874314-Reviews-Lassy_Coffee-Vinh_Nghe_An_Province.html,1,4.0,,False,,,,18.66004,105.69423,False,False,"['Cafe', 'Vietnamese']"
45,20199917,Rever Cafe,https://www.tripadvisor.com/Restaurant_Review-g1554764-d20199917-Reviews-Rever_Cafe-Vinh_Nghe_An_Province.html,0,0.0,$$ - $$$,False,,,https://dynamic-media-cdn.tripadvisor.com/media/photo-o/1c/47/ba/24/3.jpg,18.681501,105.6845,False,False,['Cafe']
46,17806839,Song Ngu Son,https://www.tripadvisor.com/Restaurant_Review-g4235728-d17806839-Reviews-Song_Ngu_Son-Cua_Lo_Nghe_An_Province.html,0,0.0,$$ - $$$,False,,,,18.820677,105.72199,False,False,"['Chinese', 'American', 'European', 'Thai', 'Vietnamese']"
47,24107395,"NHÀ HÀNG HẢI NHẬT 1, SỐ 116/1",https://www.tripadvisor.com/Restaurant_Review-g4235728-d24107395-Reviews-NHA_HANG_H_I_NH_T_1_S_116_1-Cua_Lo_Nghe_An_Province.html,0,0.0,,False,,,,18.804699,105.7251,False,False,"['Seafood', 'Vietnamese']"
48,15320067,Nha Hang Sakura,https://www.tripadvisor.com/Restaurant_Review-g1554764-d15320067-Reviews-Nha_Hang_Sakura-Vinh_Nghe_An_Province.html,0,0.0,$$ - $$$,False,,,https://dynamic-media-cdn.tripadvisor.com/media/photo-o/16/a4/47/e9/th-c-don-com-ki-u-nh.jpg,18.68756,105.68166,False,False,"['Seafood', 'Sushi', 'Deli', 'Grill', 'Street Food']"
49,11978945,Pub Welove,https://www.tripadvisor.com/Restaurant_Review-g1554764-d11978945-Reviews-Pub_Welove-Vinh_Nghe_An_Province.html,0,0.0,$$$$,False,,,,18.668455,105.6938,False,False,"['Chinese', 'American', 'Caribbean', 'Thai', 'British']"
50,23115477,The Pizza Company,https://www.tripadvisor.com/Restaurant_Review-g1554764-d23115477-Reviews-The_Pizza_Company-Vinh_Nghe_An_Province.html,0,0.0,$$ - $$$,False,,,,18.679585,105.681335,False,False,['Pizza']
51,7924474,Yen Vinh Restaurant,https://www.tripadvisor.com/Restaurant_Review-g1554764-d7924474-Reviews-Yen_Vinh_Restaurant-Vinh_Nghe_An_Province.html,1,4.0,,False,,,,18.66835,105.67413,False,False,['Asian']
52,12860554,GoGi House Restaurant,https://www.tripadvisor.com/Restaurant_Review-g1554764-d12860554-Reviews-GoGi_House_Restaurant-Vinh_Nghe_An_Province.html,0,0.0,$$ - $$$,False,http://gogi.com.vn/menus/thuc-don-gogi/,,,18.670778,105.6861,False,False,"['Seafood', 'Asian', 'Korean', 'Pub', 'Diner', 'Gastropub']"
53,16814106,Nha Hang Bien Sach,https://www.tripadvisor.com/Restaurant_Review-g4235728-d16814106-Reviews-Nha_Hang_Bien_Sach-Cua_Lo_Nghe_An_Province.html,0,0.0,,False,,,,18.767939,105.75359,False,False,['Seafood']
54,15512386,Espresso Coffee Cua Lo,https://www.tripadvisor.com/Restaurant_Review-g4235728-d15512386-Reviews-Espresso_Coffee_Cua_Lo-Cua_Lo_Nghe_An_Province.html,0,0.0,$,False,,,,18.80419,105.720566,False,False,[]
55,19125768,Phui BQ,https://www.tripadvisor.com/Restaurant_Review-g15017900-d19125768-Reviews-Phui_BQ-Thai_Hoa_Nghe_An_Province.html,1,5.0,,False,,,https://dynamic-media-cdn.tripadvisor.com/media/photo-o/19/9c/56/c4/photo1jpg.jpg,18.66159,105.66929,False,False,['Vietnamese']
56,13784257,Vuong Giang Restaurant,https://www.tripadvisor.com/Restaurant_Review-g12178475-d13784257-Reviews-Vuong_Giang_Restaurant-Hoang_Mai_Nghe_An_Province.html,1,4.0,,False,,,https://dynamic-media-cdn.tripadvisor.com/media/photo-o/12/3e/df/99/fresh-very-fresh-seafood.jpg,,,False,False,[]
57,23218516,SASIN - Mì Cay 7 Cấp Độ Hàn Quốc - Vinh,https://www.tripadvisor.com/Restaurant_Review-g1554764-d23218516-Reviews-SASIN_Mi_Cay_7_C_p_D_Han_Qu_c_Vinh-Vinh_Nghe_An_Province.html,0,0.0,$,False,,,,18.682436,105.68337,False,False,['Fusion']
58,23086047,The Pizza Company,https://www.tripadvisor.com/Restaurant_Review-g1554764-d23086047-Reviews-The_Pizza_Company-Vinh_Nghe_An_Province.html,0,0.0,$$ - $$$,False,,,,18.670464,105.67393,False,False,['Pizza']
59,21232830,Nha Hang Hoa Ban,https://www.tripadvisor.com/Restaurant_Review-g1554764-d21232830-Reviews-Nha_Hang_Hoa_Ban-Vinh_Nghe_An_Province.html,0,0.0,$$ - $$$,False,,,https://dynamic-media-cdn.tripadvisor.com/media/photo-o/1b/cc/f6/5a/getlstd-property-photo.jpg,18.647114,105.67199,False,False,"['Seafood', 'Central Asian']"
60,14003696,Kung Pao,https://www.tripadvisor.com/Restaurant_Review-g1554764-d14003696-Reviews-Kung_Pao-Vinh_Nghe_An_Province.html,0,0.0,,False,,,,18.69391,105.69259,False,False,['Chinese']
61,14058802,Bun Cha Thang Bon,https://www.tripadvisor.com/Restaurant_Review-g8841037-d14058802-Reviews-Bun_Cha_Thang_Bon-Dien_Chau_Nghe_An_Province.html,0,0.0,$,False,,,,18.967972,105.60075,False,False,"['Chinese', 'Deli', 'Vietnamese']"
62,21332596,Nhà hàng Hàn Quốc,https://www.tripadvisor.com/Restaurant_Review-g1554764-d21332596-Reviews-Nha_hang_Han_Qu_c-Vinh_Nghe_An_Province.html,0,0.0,,False,,,,18.66667,105.66667,False,False,['Grill']
63,12661078,Pho - Ca phe Sach,https://www.tripadvisor.com/Restaurant_Review-g1554764-d12661078-Reviews-Pho_Ca_phe_Sach-Vinh_Nghe_An_Province.html,0,0.0,$,False,,,,18.677116,105.694405,False,False,[]
64,27747784,Nhà Hàng Gió Biển,https://www.tripadvisor.com/Restaurant_Review-g15221844-d27747784-Reviews-Nha_Hang_Gio_Bi_n-Nghi_Yen_Nghe_An_Province.html,0,0.0,,False,,,,18.801262,105.727104,False,False,"['Seafood', 'Vietnamese', 'Beer restaurants']"
